{
"type": "FeatureCollection",
"name": "healthFacilities3",
"features": [
{ "type": "Feature", "properties": { "F_NAME": "ANMER DISP", "PROV": "CENTRAL", "DIST": "KIAMBU", "DIVISION": "KIAMBAA", "LOCATION": "KAMITI", "SUB_LOCATI": "ANMER", "LONG": 36.84009, "LAT": -1.137387, "SPATIAL_RE": "1:50000 MAPS", "F_TYPE": 4, "AGENCY": "MOH" }, "geometry": { "type": "Point", "coordinates": [ 36.84009, -1.137387 ] } },
{ "type": "Feature", "properties": { "F_NAME": "BATHI DISP", "PROV": "CENTRAL", "DIST": "KIAMBU", "DIVISION": "LARI", "LOCATION": "KIJABE", "SUB_LOCATI": "BATHI", "LONG": 36.6347, "LAT": -0.978523, "SPATIAL_RE": "DDP", "F_TYPE": 4, "AGENCY": "MISS" }, "geometry": { "type": "Point", "coordinates": [ 36.6347, -0.978523 ] } },
{ "type": "Feature", "properties": { "F_NAME": "BIBIRIONI DISP", "PROV": "CENTRAL", "DIST": "KIAMBU", "DIVISION": "LIMURU", "LOCATION": "LIMURU", "SUB_LOCATI": "BIBIRIONI", "LONG": 36.6171, "LAT": -1.08108, "SPATIAL_RE": "1:50000 MAPS", "F_TYPE": 4, "AGENCY": "MISS" }, "geometry": { "type": "Point", "coordinates": [ 36.6171, -1.08108 ] } },
{ "type": "Feature", "properties": { "F_NAME": "CHURA DISP", "PROV": "CENTRAL", "DIST": "KIAMBU", "DIVISION": "KIKUYU", "LOCATION": "KABETE", "SUB_LOCATI": "CHURA", "LONG": 36.6896, "LAT": -1.21635, "SPATIAL_RE": "1:50000 MAPS", "F_TYPE": 4, "AGENCY": "MOH" }, "geometry": { "type": "Point", "coordinates": [ 36.6896, -1.21635 ] } },
{ "type": "Feature", "properties": { "F_NAME": "CIANDA DISP", "PROV": "CENTRAL", "DIST": "KIAMBU", "DIVISION": "KIAMBAA", "LOCATION": "CIANDA", "SUB_LOCATI": "CIANDA", "LONG": 36.7613, "LAT": -1.1328, "SPATIAL_RE": "1:50000 MAPS", "F_TYPE": 4, "AGENCY": "MOH" }, "geometry": { "type": "Point", "coordinates": [ 36.7613, -1.1328 ] } },
{ "type": "Feature", "properties": { "F_NAME": "GACHOIRE DISP", "PROV": "CENTRAL", "DIST": "KIAMBU", "DIVISION": "LARI", "LOCATION": "NYANDUMA", "SUB_LOCATI": "GACHOIRE", "LONG": 36.7044, "LAT": -0.991187, "SPATIAL_RE": "DDP", "F_TYPE": 4, "AGENCY": "MOH" }, "geometry": { "type": "Point", "coordinates": [ 36.7044, -0.991187 ] } },
{ "type": "Feature", "properties": { "F_NAME": "GATHANGA DISP", "PROV": "CENTRAL", "DIST": "KIAMBU", "DIVISION": "KIAMBAA", "LOCATION": "WAGUTHU", "SUB_LOCATI": "GATHANGA", "LONG": 36.791234, "LAT": -1.182312, "SPATIAL_RE": "1:50000 MAPS", "F_TYPE": 4, "AGENCY": "MOH" }, "geometry": { "type": "Point", "coordinates": [ 36.791234, -1.182312 ] } },
{ "type": "Feature", "properties": { "F_NAME": "GATHANGARI DISP", "PROV": "CENTRAL", "DIST": "KIAMBU", "DIVISION": "GITHUNGURI", "LOCATION": "GITHIGA", "SUB_LOCATI": "GITIHA", "LONG": 36.7054, "LAT": -1.06802, "SPATIAL_RE": "1:50000 MAPS", "F_TYPE": 4, "AGENCY": "MOH" }, "geometry": { "type": "Point", "coordinates": [ 36.7054, -1.06802 ] } },
{ "type": "Feature", "properties": { "F_NAME": "GIATHIEKO DISP", "PROV": "CENTRAL", "DIST": "KIAMBU", "DIVISION": "GITHUNGURI", "LOCATION": "IKINU", "SUB_LOCATI": "RIUKI", "LONG": 36.8279, "LAT": -1.09883, "SPATIAL_RE": "DDP", "F_TYPE": 4, "AGENCY": "MOH" }, "geometry": { "type": "Point", "coordinates": [ 36.8279, -1.09883 ] } },
{ "type": "Feature", "properties": { "F_NAME": "GICHARANI DISP", "PROV": "CENTRAL", "DIST": "KIAMBU", "DIVISION": "KIKUYU", "LOCATION": "KARAI", "SUB_LOCATI": "GIKAMBURA", "LONG": 36.65, "LAT": -1.27, "SPATIAL_RE": "ILRI VILLAGES", "F_TYPE": 4, "AGENCY": "MISS" }, "geometry": { "type": "Point", "coordinates": [ 36.65, -1.27 ] } },
{ "type": "Feature", "properties": { "F_NAME": "GICHURU DISP", "PROV": "CENTRAL", "DIST": "KIAMBU", "DIVISION": "LIMURU", "LOCATION": "NGECHA", "SUB_LOCATI": "NGECHA", "LONG": 36.6689, "LAT": -1.16126, "SPATIAL_RE": "1:50000 MAPS", "F_TYPE": 4, "AGENCY": "MOH" }, "geometry": { "type": "Point", "coordinates": [ 36.6689, -1.16126 ] } },
{ "type": "Feature", "properties": { "F_NAME": "GITHIGA HEALTH CENTRE", "PROV": "CENTRAL", "DIST": "KIAMBU", "DIVISION": "GITHUNGURI", "LOCATION": "GITHIGA", "SUB_LOCATI": "MATUGUTA", "LONG": 36.7462, "LAT": -1.083, "SPATIAL_RE": "DDP", "F_TYPE": 3, "AGENCY": "MOH" }, "geometry": { "type": "Point", "coordinates": [ 36.7462, -1.083 ] } },
{ "type": "Feature", "properties": { "F_NAME": "GITHUNGURI HEALTH CENTRE", "PROV": "CENTRAL", "DIST": "KIAMBU", "DIVISION": "GITHUNGURI", "LOCATION": "GITHUNGURI", "SUB_LOCATI": "KANJAI", "LONG": 36.788, "LAT": -1.05339, "SPATIAL_RE": "DDP", "F_TYPE": 3, "AGENCY": "MOH" }, "geometry": { "type": "Point", "coordinates": [ 36.788, -1.05339 ] } },
{ "type": "Feature", "properties": { "F_NAME": "GITIHA HEALTH CENTRE", "PROV": "CENTRAL", "DIST": "KIAMBU", "DIVISION": "GITHUNGURI", "LOCATION": "GITHIGA", "SUB_LOCATI": "GITIHA", "LONG": 36.6896, "LAT": -1.0742, "SPATIAL_RE": "1:50000 MAPS", "F_TYPE": 3, "AGENCY": "MOH" }, "geometry": { "type": "Point", "coordinates": [ 36.6896, -1.0742 ] } },
{ "type": "Feature", "properties": { "F_NAME": "HOLY CROSS (THIGIO) DISP", "PROV": "CENTRAL", "DIST": "KIAMBU", "DIVISION": "LIMURU", "LOCATION": "NDEIYA", "SUB_LOCATI": "THIGIO(KIAMBU)", "LONG": 36.56731, "LAT": -1.196205, "SPATIAL_RE": "SUBLOC CENTROID", "F_TYPE": 4, "AGENCY": "MISS" }, "geometry": { "type": "Point", "coordinates": [ 36.56731, -1.196205 ] } },
{ "type": "Feature", "properties": { "F_NAME": "KAARIA DISP", "PROV": "CENTRAL", "DIST": "KIAMBU", "DIVISION": "KIAMBAA", "LOCATION": "NDUMBERI", "SUB_LOCATI": "NDUMBERI", "LONG": 36.801234, "LAT": -1.14234, "SPATIAL_RE": "1:50000 MAPS", "F_TYPE": 4, "AGENCY": "MOH" }, "geometry": { "type": "Point", "coordinates": [ 36.801234, -1.14234 ] } },
{ "type": "Feature", "properties": { "F_NAME": "KAGAA HEALTH CENTRE", "PROV": "CENTRAL", "DIST": "KIAMBU", "DIVISION": "GITHUNGURI", "LOCATION": "GITHUNGURI", "SUB_LOCATI": "GITHUNGURI(KIAMBU)", "LONG": 36.7467, "LAT": -1.05093, "SPATIAL_RE": "DDP", "F_TYPE": 3, "AGENCY": "MOH" }, "geometry": { "type": "Point", "coordinates": [ 36.7467, -1.05093 ] } },
{ "type": "Feature", "properties": { "F_NAME": "KAGWE CATHOLIC MISSION DISP", "PROV": "CENTRAL", "DIST": "KIAMBU", "DIVISION": "LARI", "LOCATION": "GATAMAIYU", "SUB_LOCATI": "KAGWE", "LONG": 36.743433, "LAT": -1.001209, "SPATIAL_RE": "ILRI MKT CENTRES", "F_TYPE": 4, "AGENCY": "MISS" }, "geometry": { "type": "Point", "coordinates": [ 36.743433, -1.001209 ] } },
{ "type": "Feature", "properties": { "F_NAME": "KAGWE HEALTH CENTRE", "PROV": "CENTRAL", "DIST": "KIAMBU", "DIVISION": "LARI", "LOCATION": "GATAMAIYU", "SUB_LOCATI": "KAGWE", "LONG": 36.7392, "LAT": -1.00448, "SPATIAL_RE": "DDP", "F_TYPE": 3, "AGENCY": "MOH" }, "geometry": { "type": "Point", "coordinates": [ 36.7392, -1.00448 ] } },
{ "type": "Feature", "properties": { "F_NAME": "KAMAE FOREST DISP", "PROV": "CENTRAL", "DIST": "KIAMBU", "DIVISION": "LARI", "LOCATION": "KINALE", "SUB_LOCATI": "KINALE", "LONG": 36.624, "LAT": -0.870245, "SPATIAL_RE": "DDP", "F_TYPE": 4, "AGENCY": "MOH" }, "geometry": { "type": "Point", "coordinates": [ 36.624, -0.870245 ] } },
{ "type": "Feature", "properties": { "F_NAME": "KAMBUI DISP", "PROV": "CENTRAL", "DIST": "KIAMBU", "DIVISION": "GITHUNGURI", "LOCATION": "NGEWA", "SUB_LOCATI": "NYAGA", "LONG": 36.87, "LAT": -1.1, "SPATIAL_RE": "ILRI VILLAGES", "F_TYPE": 4, "AGENCY": "MISS" }, "geometry": { "type": "Point", "coordinates": [ 36.87, -1.1 ] } },
{ "type": "Feature", "properties": { "F_NAME": "KAMBURU DISP", "PROV": "CENTRAL", "DIST": "KIAMBU", "DIVISION": "LARI", "LOCATION": "KAMBURU", "SUB_LOCATI": "MATIMBEI", "LONG": 36.7082, "LAT": -1.01588, "SPATIAL_RE": "DDP", "F_TYPE": 4, "AGENCY": "MOH" }, "geometry": { "type": "Point", "coordinates": [ 36.7082, -1.01588 ] } },
{ "type": "Feature", "properties": { "F_NAME": "KARAI HEALTH CENTRE", "PROV": "CENTRAL", "DIST": "KIAMBU", "DIVISION": "KIKUYU", "LOCATION": "KARAI", "SUB_LOCATI": "NACHU", "LONG": 36.5765, "LAT": -1.28069, "SPATIAL_RE": "DDP", "F_TYPE": 3, "AGENCY": "MOH" }, "geometry": { "type": "Point", "coordinates": [ 36.5765, -1.28069 ] } },
{ "type": "Feature", "properties": { "F_NAME": "KARIA DISP", "PROV": "CENTRAL", "DIST": "KIAMBU", "DIVISION": "KIAMBAA", "LOCATION": "WAGUTHU", "SUB_LOCATI": "NGEGU", "LONG": 36.82123, "LAT": -1.174213, "SPATIAL_RE": "1:50000 MAPS", "F_TYPE": 4, "AGENCY": "MOH" }, "geometry": { "type": "Point", "coordinates": [ 36.82123, -1.174213 ] } },
{ "type": "Feature", "properties": { "F_NAME": "KARURA SDA DISP", "PROV": "CENTRAL", "DIST": "KIAMBU", "DIVISION": "KIAMBAA", "LOCATION": "KIHARA", "SUB_LOCATI": "GACHIE", "LONG": 36.78, "LAT": -1.22, "SPATIAL_RE": "ILRI VILLAGES", "F_TYPE": 4, "AGENCY": "MISS" }, "geometry": { "type": "Point", "coordinates": [ 36.78, -1.22 ] } },
{ "type": "Feature", "properties": { "F_NAME": "KARURI HEALTH CENTRE", "PROV": "CENTRAL", "DIST": "KIAMBU", "DIVISION": "KIAMBAA", "LOCATION": "KIAMBAA", "SUB_LOCATI": "NJIKU", "LONG": 36.7399, "LAT": -1.18431, "SPATIAL_RE": "DDP", "F_TYPE": 3, "AGENCY": "MOH" }, "geometry": { "type": "Point", "coordinates": [ 36.7399, -1.18431 ] } },
{ "type": "Feature", "properties": { "F_NAME": "KENTMERE DISP", "PROV": "CENTRAL", "DIST": "KIAMBU", "DIVISION": "LIMURU", "LOCATION": "KARAMBAINI", "SUB_LOCATI": "MABROUKE", "LONG": 36.658545, "LAT": -1.122966, "SPATIAL_RE": "1:50000 MAPS", "F_TYPE": 4, "AGENCY": "MISS" }, "geometry": { "type": "Point", "coordinates": [ 36.658545, -1.122966 ] } },
{ "type": "Feature", "properties": { "F_NAME": "KIAMBAA DISP", "PROV": "CENTRAL", "DIST": "KIAMBU", "DIVISION": "KIAMBAA", "LOCATION": "KAMITI", "SUB_LOCATI": "ANMER", "LONG": 36.8456, "LAT": -1.13999, "SPATIAL_RE": "DDP", "F_TYPE": 4, "AGENCY": "MOH" }, "geometry": { "type": "Point", "coordinates": [ 36.8456, -1.13999 ] } },
{ "type": "Feature", "properties": { "F_NAME": "KIAMBU DISTRICT HOSPITAL", "PROV": "CENTRAL", "DIST": "KIAMBU", "DIVISION": "KIAMBAA", "LOCATION": "KIAMBAA S\/AREA", "SUB_LOCATI": "TOWNSHIP(KIAMBAA)", "LONG": 36.82993, "LAT": -1.16938, "SPATIAL_RE": "GPS", "F_TYPE": 1, "AGENCY": "MOH" }, "geometry": { "type": "Point", "coordinates": [ 36.82993, -1.16938 ] } },
{ "type": "Feature", "properties": { "F_NAME": "KIAWAROGA DISP", "PROV": "CENTRAL", "DIST": "KIAMBU", "DIVISION": "LIMURU", "LOCATION": "KARAMBAINI", "SUB_LOCATI": "KIAWAROGA", "LONG": 36.702703, "LAT": -1.10046, "SPATIAL_RE": "1:50000 MAPS", "F_TYPE": 4, "AGENCY": "MOH" }, "geometry": { "type": "Point", "coordinates": [ 36.702703, -1.10046 ] } },
{ "type": "Feature", "properties": { "F_NAME": "KIBUBUTI HEALTH CENTRE", "PROV": "CENTRAL", "DIST": "KIAMBU", "DIVISION": "KIAMBAA", "LOCATION": "WAGUTHU", "SUB_LOCATI": "KANUNGA", "LONG": 36.783449, "LAT": -1.157365, "SPATIAL_RE": "SUBLOC CENTROID", "F_TYPE": 3, "AGENCY": "MISS" }, "geometry": { "type": "Point", "coordinates": [ 36.783449, -1.157365 ] } },
{ "type": "Feature", "properties": { "F_NAME": "KIENI FOREST DISP", "PROV": "CENTRAL", "DIST": "KIAMBU", "DIVISION": "LARI", "LOCATION": "KINALE", "SUB_LOCATI": "MUKEU(KIAMBU)", "LONG": 36.648379, "LAT": -0.921169, "SPATIAL_RE": "SUBLOC CENTROID", "F_TYPE": 4, "AGENCY": "MOH" }, "geometry": { "type": "Point", "coordinates": [ 36.648379, -0.921169 ] } },
{ "type": "Feature", "properties": { "F_NAME": "KIENI HEALTH CENTRE", "PROV": "CENTRAL", "DIST": "KIAMBU", "DIVISION": "LARI", "LOCATION": "KAMAE", "SUB_LOCATI": "KAMUKOMBI-INI", "LONG": 36.619369, "LAT": -0.858108, "SPATIAL_RE": "1:50000 MAPS", "F_TYPE": 3, "AGENCY": "MOH" }, "geometry": { "type": "Point", "coordinates": [ 36.619369, -0.858108 ] } },
{ "type": "Feature", "properties": { "F_NAME": "KIGUMO HEALTH CENTRE", "PROV": "CENTRAL", "DIST": "KIAMBU", "DIVISION": "GITHUNGURI", "LOCATION": "KOMOTHAI", "SUB_LOCATI": "KARATINA", "LONG": 36.82658, "LAT": -1.031082, "SPATIAL_RE": "1:50000 MAPS", "F_TYPE": 3, "AGENCY": "MOH" }, "geometry": { "type": "Point", "coordinates": [ 36.82658, -1.031082 ] } },
{ "type": "Feature", "properties": { "F_NAME": "KIHARA HEALTH CENTRE", "PROV": "CENTRAL", "DIST": "KIAMBU", "DIVISION": "KIAMBAA", "LOCATION": "KIHARA", "SUB_LOCATI": "MAHINDI", "LONG": 36.7386, "LAT": -1.21091, "SPATIAL_RE": "DDP", "F_TYPE": 3, "AGENCY": "MOH" }, "geometry": { "type": "Point", "coordinates": [ 36.7386, -1.21091 ] } },
{ "type": "Feature", "properties": { "F_NAME": "KIJABE HOSPITAL", "PROV": "CENTRAL", "DIST": "KIAMBU", "DIVISION": "LARI", "LOCATION": "KIJABE", "SUB_LOCATI": "KIJABE", "LONG": 36.59431, "LAT": -0.94349, "SPATIAL_RE": "GPS", "F_TYPE": 1, "AGENCY": "MISS" }, "geometry": { "type": "Point", "coordinates": [ 36.59431, -0.94349 ] } },
{ "type": "Feature", "properties": { "F_NAME": "KIMATHI DISP", "PROV": "CENTRAL", "DIST": "KIAMBU", "DIVISION": "GITHUNGURI", "LOCATION": "NGEWA", "SUB_LOCATI": "KIMATHI(KIAMBU)", "LONG": 36.8684, "LAT": -1.1077, "SPATIAL_RE": "DDP", "F_TYPE": 4, "AGENCY": "MOH" }, "geometry": { "type": "Point", "coordinates": [ 36.8684, -1.1077 ] } },
{ "type": "Feature", "properties": { "F_NAME": "KINALE FOREST DISP", "PROV": "CENTRAL", "DIST": "KIAMBU", "DIVISION": "LARI", "LOCATION": "KINALE", "SUB_LOCATI": "MUKEU(KIAMBU)", "LONG": 36.61036, "LAT": -0.911261, "SPATIAL_RE": "1:50000 MAPS", "F_TYPE": 4, "AGENCY": "MOH" }, "geometry": { "type": "Point", "coordinates": [ 36.61036, -0.911261 ] } },
{ "type": "Feature", "properties": { "F_NAME": "KINALE HEALTH CENTRE", "PROV": "CENTRAL", "DIST": "KIAMBU", "DIVISION": "LARI", "LOCATION": "KINALE", "SUB_LOCATI": "MUKEU(KIAMBU)", "LONG": 36.6157, "LAT": -0.908237, "SPATIAL_RE": "DDP", "F_TYPE": 3, "AGENCY": "MOH" }, "geometry": { "type": "Point", "coordinates": [ 36.6157, -0.908237 ] } },
{ "type": "Feature", "properties": { "F_NAME": "KIRATINA DISP", "PROV": "CENTRAL", "DIST": "KIAMBU", "DIVISION": "GITHUNGURI", "LOCATION": "KOMOTHAI", "SUB_LOCATI": "KARATINA", "LONG": 36.8203, "LAT": -1.03614, "SPATIAL_RE": "DDP", "F_TYPE": 4, "AGENCY": "MOH" }, "geometry": { "type": "Point", "coordinates": [ 36.8203, -1.03614 ] } },
{ "type": "Feature", "properties": { "F_NAME": "KIRIITA DISP", "PROV": "CENTRAL", "DIST": "KIAMBU", "DIVISION": "LARI", "LOCATION": "GATAMAIYU", "SUB_LOCATI": "KAGWE", "LONG": 36.6964, "LAT": -0.985135, "SPATIAL_RE": "1:50000 MAPS", "F_TYPE": 4, "AGENCY": "MOH" }, "geometry": { "type": "Point", "coordinates": [ 36.6964, -0.985135 ] } },
{ "type": "Feature", "properties": { "F_NAME": "KIRIITA MISSION HC", "PROV": "CENTRAL", "DIST": "KIAMBU", "DIVISION": "LARI", "LOCATION": "KIJABE", "SUB_LOCATI": "BATHI", "LONG": 36.63, "LAT": -0.97, "SPATIAL_RE": "ILRI VILLAGES", "F_TYPE": 3, "AGENCY": "MISS" }, "geometry": { "type": "Point", "coordinates": [ 36.63, -0.97 ] } },
{ "type": "Feature", "properties": { "F_NAME": "LARI HEALTH CENTRE", "PROV": "CENTRAL", "DIST": "KIAMBU", "DIVISION": "LARI", "LOCATION": "KIRENGA", "SUB_LOCATI": "ESCARPMENT", "LONG": 36.605, "LAT": -1.02791, "SPATIAL_RE": "DDP", "F_TYPE": 3, "AGENCY": "MOH" }, "geometry": { "type": "Point", "coordinates": [ 36.605, -1.02791 ] } },
{ "type": "Feature", "properties": { "F_NAME": "LIMURU HEALTH CENTRE", "PROV": "CENTRAL", "DIST": "KIAMBU", "DIVISION": "LIMURU", "LOCATION": "LIMURU", "SUB_LOCATI": "KAMIRITHU", "LONG": 36.6366, "LAT": -1.11593, "SPATIAL_RE": "DDP", "F_TYPE": 3, "AGENCY": "MOH" }, "geometry": { "type": "Point", "coordinates": [ 36.6366, -1.11593 ] } },
{ "type": "Feature", "properties": { "F_NAME": "LIOKI MISSION DISP", "PROV": "CENTRAL", "DIST": "KIAMBU", "DIVISION": "GITHUNGURI", "LOCATION": "IKINU", "SUB_LOCATI": "RIUKI", "LONG": 36.830408, "LAT": -1.102112, "SPATIAL_RE": "SUBLOC CENTROID", "F_TYPE": 4, "AGENCY": "MISS" }, "geometry": { "type": "Point", "coordinates": [ 36.830408, -1.102112 ] } },
{ "type": "Feature", "properties": { "F_NAME": "LITTLE SERVANT OF SACRET HEART D", "PROV": "CENTRAL", "DIST": "KIAMBU", "DIVISION": "KIAMBAA", "LOCATION": "KIAMBAA", "SUB_LOCATI": "NJORO(KIAMBU)", "LONG": 36.771525, "LAT": -1.192355, "SPATIAL_RE": "SUBLOC CENTROID", "F_TYPE": 4, "AGENCY": "MISS" }, "geometry": { "type": "Point", "coordinates": [ 36.771525, -1.192355 ] } },
{ "type": "Feature", "properties": { "F_NAME": "LUSIGETTI HEALTH CENTRE", "PROV": "CENTRAL", "DIST": "KIAMBU", "DIVISION": "KIKUYU", "LOCATION": "KARAI", "SUB_LOCATI": "LUSINGETTI", "LONG": 36.6136, "LAT": -1.28, "SPATIAL_RE": "1:50000 MAPS", "F_TYPE": 3, "AGENCY": "MOH" }, "geometry": { "type": "Point", "coordinates": [ 36.6136, -1.28 ] } },
{ "type": "Feature", "properties": { "F_NAME": "MIGAA DISP", "PROV": "CENTRAL", "DIST": "KIAMBU", "DIVISION": "KIAMBAA", "LOCATION": "CIANDA", "SUB_LOCATI": "CIANDA", "LONG": 36.8, "LAT": -1.12, "SPATIAL_RE": "ILRI VILLAGES", "F_TYPE": 4, "AGENCY": "MOH" }, "geometry": { "type": "Point", "coordinates": [ 36.8, -1.12 ] } },
{ "type": "Feature", "properties": { "F_NAME": "MIGUTA DISP", "PROV": "CENTRAL", "DIST": "KIAMBU", "DIVISION": "GITHUNGURI", "LOCATION": "GITHUNGURI", "SUB_LOCATI": "KIAIRIA", "LONG": 36.8, "LAT": -1.07, "SPATIAL_RE": "ILRI VILLAGES", "F_TYPE": 4, "AGENCY": "MISS" }, "geometry": { "type": "Point", "coordinates": [ 36.8, -1.07 ] } },
{ "type": "Feature", "properties": { "F_NAME": "MOST PRECIOUS BLOOD DISP", "PROV": "CENTRAL", "DIST": "KIAMBU", "DIVISION": "LIMURU", "LOCATION": "TIGONI", "SUB_LOCATI": "RED HILL", "LONG": 36.7, "LAT": -1.18, "SPATIAL_RE": "ILRI VILLAGES", "F_TYPE": 4, "AGENCY": "MISS" }, "geometry": { "type": "Point", "coordinates": [ 36.7, -1.18 ] } },
{ "type": "Feature", "properties": { "F_NAME": "NAZARETH HOSPITAL", "PROV": "CENTRAL", "DIST": "KIAMBU", "DIVISION": "LIMURU", "LOCATION": "KARAMBAINI", "SUB_LOCATI": "KARAMBAINI", "LONG": 36.7257, "LAT": -1.13378, "SPATIAL_RE": "1:50000 MAPS", "F_TYPE": 1, "AGENCY": "MISS" }, "geometry": { "type": "Point", "coordinates": [ 36.7257, -1.13378 ] } },
{ "type": "Feature", "properties": { "F_NAME": "NDEIYA HEALTH CENTRE", "PROV": "CENTRAL", "DIST": "KIAMBU", "DIVISION": "LIMURU", "LOCATION": "NDEIYA", "SUB_LOCATI": "NDERU", "LONG": 36.5942, "LAT": -1.16975, "SPATIAL_RE": "DDP", "F_TYPE": 3, "AGENCY": "MOH" }, "geometry": { "type": "Point", "coordinates": [ 36.5942, -1.16975 ] } },
{ "type": "Feature", "properties": { "F_NAME": "NDERU DISP", "PROV": "CENTRAL", "DIST": "KIAMBU", "DIVISION": "LIMURU", "LOCATION": "NDEIYA", "SUB_LOCATI": "NDERU", "LONG": 36.60586, "LAT": -1.142793, "SPATIAL_RE": "1:50000 MAPS", "F_TYPE": 4, "AGENCY": "MOH" }, "geometry": { "type": "Point", "coordinates": [ 36.60586, -1.142793 ] } },
{ "type": "Feature", "properties": { "F_NAME": "NDURIRI DISP", "PROV": "CENTRAL", "DIST": "KIAMBU", "DIVISION": "LARI", "LOCATION": "NYANDUMA", "SUB_LOCATI": "GACHOIRE", "LONG": 36.70945, "LAT": -0.984242, "SPATIAL_RE": "1:50000 MAPS", "F_TYPE": 4, "AGENCY": "MISS" }, "geometry": { "type": "Point", "coordinates": [ 36.70945, -0.984242 ] } },
{ "type": "Feature", "properties": { "F_NAME": "NDURIRI DISP", "PROV": "CENTRAL", "DIST": "KIAMBU", "DIVISION": "LARI", "LOCATION": "NYANDUMA", "SUB_LOCATI": "GACHOIRE", "LONG": 36.70901, "LAT": -0.984685, "SPATIAL_RE": "1:50000 MAPS", "F_TYPE": 4, "AGENCY": "MOH" }, "geometry": { "type": "Point", "coordinates": [ 36.70901, -0.984685 ] } },
{ "type": "Feature", "properties": { "F_NAME": "NGARARIGA MISSION DISP", "PROV": "CENTRAL", "DIST": "KIAMBU", "DIVISION": "LIMURU", "LOCATION": "LIMURU", "SUB_LOCATI": "BIBIRIONI", "LONG": 36.617117, "LAT": -1.069369, "SPATIAL_RE": "1:50000 MAPS", "F_TYPE": 4, "AGENCY": "MISS" }, "geometry": { "type": "Point", "coordinates": [ 36.617117, -1.069369 ] } },
{ "type": "Feature", "properties": { "F_NAME": "NGECHA ORTHODOX  DISP", "PROV": "CENTRAL", "DIST": "KIAMBU", "DIVISION": "LIMURU", "LOCATION": "NGECHA", "SUB_LOCATI": "NGECHA", "LONG": 36.670303, "LAT": -1.169356, "SPATIAL_RE": "SUBLOC CENTROID", "F_TYPE": 4, "AGENCY": "MISS" }, "geometry": { "type": "Point", "coordinates": [ 36.670303, -1.169356 ] } },
{ "type": "Feature", "properties": { "F_NAME": "NGEWA HEALTH CENTRE", "PROV": "CENTRAL", "DIST": "KIAMBU", "DIVISION": "GITHUNGURI", "LOCATION": "NGEWA", "SUB_LOCATI": "NYAGA", "LONG": 36.863964, "LAT": -1.092343, "SPATIAL_RE": "1:50000 MAPS", "F_TYPE": 3, "AGENCY": "MOH" }, "geometry": { "type": "Point", "coordinates": [ 36.863964, -1.092343 ] } },
{ "type": "Feature", "properties": { "F_NAME": "NYAGA HEALTH CENTRE", "PROV": "CENTRAL", "DIST": "KIAMBU", "DIVISION": "GITHUNGURI", "LOCATION": "NGEWA", "SUB_LOCATI": "NYAGA", "LONG": 36.8716, "LAT": -1.10326, "SPATIAL_RE": "DDP", "F_TYPE": 3, "AGENCY": "MOH" }, "geometry": { "type": "Point", "coordinates": [ 36.8716, -1.10326 ] } },
{ "type": "Feature", "properties": { "F_NAME": "NYATHUNA HEALTH CENTRE", "PROV": "CENTRAL", "DIST": "KIAMBU", "DIVISION": "KIKUYU", "LOCATION": "NYATHUNA", "SUB_LOCATI": "KIRANGARI(KIAMBU)", "LONG": 36.7031, "LAT": -1.20204, "SPATIAL_RE": "DDP", "F_TYPE": 3, "AGENCY": "MOH" }, "geometry": { "type": "Point", "coordinates": [ 36.7031, -1.20204 ] } },
{ "type": "Feature", "properties": { "F_NAME": "P.C.E.A GATHIRUINI DISP", "PROV": "CENTRAL", "DIST": "KIAMBU", "DIVISION": "GITHUNGURI", "LOCATION": "KOMOTHAI", "SUB_LOCATI": "KIBICHOI", "LONG": 36.87118, "LAT": -1.049952, "SPATIAL_RE": "SUBLOC CENTROID", "F_TYPE": 4, "AGENCY": "MISS" }, "geometry": { "type": "Point", "coordinates": [ 36.87118, -1.049952 ] } },
{ "type": "Feature", "properties": { "F_NAME": "P.C.E.A. KIKUYU HOSPITAL", "PROV": "CENTRAL", "DIST": "KIAMBU", "DIVISION": "KIKUYU", "LOCATION": "KIKUYU", "SUB_LOCATI": "KIKUYU TOWNSHIP", "LONG": 36.6667, "LAT": -1.26667, "SPATIAL_RE": "DDP", "F_TYPE": 1, "AGENCY": "MISS" }, "geometry": { "type": "Point", "coordinates": [ 36.6667, -1.26667 ] } },
{ "type": "Feature", "properties": { "F_NAME": "RAGIA FOREST DISP", "PROV": "CENTRAL", "DIST": "KIAMBU", "DIVISION": "LARI", "LOCATION": "KAMAE", "SUB_LOCATI": "KAMAE", "LONG": 36.661129, "LAT": -0.790616, "SPATIAL_RE": "ILRI VILLAGES", "F_TYPE": 4, "AGENCY": "MOH" }, "geometry": { "type": "Point", "coordinates": [ 36.661129, -0.790616 ] } },
{ "type": "Feature", "properties": { "F_NAME": "RAGIA HEALTH CENTRE", "PROV": "CENTRAL", "DIST": "KIAMBU", "DIVISION": "LARI", "LOCATION": "KAMAE", "SUB_LOCATI": "KAMAE", "LONG": 36.6759, "LAT": -0.791728, "SPATIAL_RE": "DDP", "F_TYPE": 3, "AGENCY": "MOH" }, "geometry": { "type": "Point", "coordinates": [ 36.6759, -0.791728 ] } },
{ "type": "Feature", "properties": { "F_NAME": "THIGIO MISSION DISP", "PROV": "CENTRAL", "DIST": "KIAMBU", "DIVISION": "LIMURU", "LOCATION": "NDEIYA", "SUB_LOCATI": "THIGIO(KIAMBU)", "LONG": 36.6, "LAT": -1.18, "SPATIAL_RE": "ILRI VILLAGES", "F_TYPE": 4, "AGENCY": "MISS" }, "geometry": { "type": "Point", "coordinates": [ 36.6, -1.18 ] } },
{ "type": "Feature", "properties": { "F_NAME": "TIGONI SUB-DISTRICT HOSPITAL", "PROV": "CENTRAL", "DIST": "KIAMBU", "DIVISION": "LIMURU", "LOCATION": "TIGONI", "SUB_LOCATI": "ITHANJI(KIAMBU)", "LONG": 36.6493, "LAT": -1.12859, "SPATIAL_RE": "DDP", "F_TYPE": 1, "AGENCY": "MOH" }, "geometry": { "type": "Point", "coordinates": [ 36.6493, -1.12859 ] } },
{ "type": "Feature", "properties": { "F_NAME": "TIN'GAN'GA DISP", "PROV": "CENTRAL", "DIST": "KIAMBU", "DIVISION": "KIAMBAA", "LOCATION": "TING'ANG'A", "SUB_LOCATI": "TING'ANG'A", "LONG": 36.8083, "LAT": -1.13366, "SPATIAL_RE": "DDP", "F_TYPE": 4, "AGENCY": "MISS" }, "geometry": { "type": "Point", "coordinates": [ 36.8083, -1.13366 ] } },
{ "type": "Feature", "properties": { "F_NAME": "UPLANDS DISP", "PROV": "CENTRAL", "DIST": "KIAMBU", "DIVISION": "LARI", "LOCATION": "LARI", "SUB_LOCATI": "GITHIRIONI", "LONG": 36.6778, "LAT": -1.04691, "SPATIAL_RE": "DDP", "F_TYPE": 4, "AGENCY": "MOH" }, "geometry": { "type": "Point", "coordinates": [ 36.6778, -1.04691 ] } },
{ "type": "Feature", "properties": { "F_NAME": "UTHIRU DISP", "PROV": "CENTRAL", "DIST": "KIAMBU", "DIVISION": "KIKUYU", "LOCATION": "KINOO", "SUB_LOCATI": "UTHIRU(KIAMBU)", "LONG": 36.7086, "LAT": -1.2526, "SPATIAL_RE": "1:50000 MAPS", "F_TYPE": 4, "AGENCY": "MOH" }, "geometry": { "type": "Point", "coordinates": [ 36.7086, -1.2526 ] } },
{ "type": "Feature", "properties": { "F_NAME": "WANGIGE HEALTH CENTRE", "PROV": "CENTRAL", "DIST": "KIAMBU", "DIVISION": "KIKUYU", "LOCATION": "NYATHUNA", "SUB_LOCATI": "KARURA(KIKUYU)", "LONG": 36.7261, "LAT": -1.21737, "SPATIAL_RE": "1:50000 MAPS", "F_TYPE": 3, "AGENCY": "MOH" }, "geometry": { "type": "Point", "coordinates": [ 36.7261, -1.21737 ] } },
{ "type": "Feature", "properties": { "F_NAME": "BARICHO HEALTH CENTRE", "PROV": "CENTRAL", "DIST": "KIRINYAGA", "DIVISION": "NDIA", "LOCATION": "MWERUA", "SUB_LOCATI": "KIANJANG'A", "LONG": 37.2305, "LAT": -0.563405, "SPATIAL_RE": "DDP", "F_TYPE": 3, "AGENCY": "MOH" }, "geometry": { "type": "Point", "coordinates": [ 37.2305, -0.563405 ] } },
{ "type": "Feature", "properties": { "F_NAME": "BARICHO MISS H C", "PROV": "CENTRAL", "DIST": "KIRINYAGA", "DIVISION": "NDIA", "LOCATION": "MWERUA", "SUB_LOCATI": "KIANJANG'A", "LONG": 37.2387, "LAT": -0.568805, "SPATIAL_RE": "HD MAPS", "F_TYPE": 3, "AGENCY": "MISS" }, "geometry": { "type": "Point", "coordinates": [ 37.2387, -0.568805 ] } },
{ "type": "Feature", "properties": { "F_NAME": "CASTLE FOREST DISP", "PROV": "CENTRAL", "DIST": "KIRINYAGA", "DIVISION": "GICHUGU", "LOCATION": "KARUMANDI", "SUB_LOCATI": "THUMAITA", "LONG": 37.351234, "LAT": -0.42234, "SPATIAL_RE": "1:50000 MAPS", "F_TYPE": 4, "AGENCY": "MOH" }, "geometry": { "type": "Point", "coordinates": [ 37.351234, -0.42234 ] } },
{ "type": "Feature", "properties": { "F_NAME": "CHRISTIAN COMMUNITY SERVICES BAS", "PROV": "CENTRAL", "DIST": "KIRINYAGA", "DIVISION": "CENTRAL", "LOCATION": "INOI", "SUB_LOCATI": "NDIMI", "LONG": 37.2597, "LAT": -0.49407, "SPATIAL_RE": "HD MAPS", "F_TYPE": 4, "AGENCY": "MISS" }, "geometry": { "type": "Point", "coordinates": [ 37.2597, -0.49407 ] } },
{ "type": "Feature", "properties": { "F_NAME": "CIAGINI DISP", "PROV": "CENTRAL", "DIST": "KIRINYAGA", "DIVISION": "MWEA", "LOCATION": "THIBA", "SUB_LOCATI": "WAMUMU", "LONG": 37.3783, "LAT": -0.75776, "SPATIAL_RE": "HD MAPS", "F_TYPE": 4, "AGENCY": "MOH" }, "geometry": { "type": "Point", "coordinates": [ 37.3783, -0.75776 ] } },
{ "type": "Feature", "properties": { "F_NAME": "DIFATHAAS CATHOLIC DISP", "PROV": "CENTRAL", "DIST": "KIRINYAGA", "DIVISION": "MWEA", "LOCATION": "MURINDUKO", "SUB_LOCATI": "KAMUNYANGE", "LONG": 37.400901, "LAT": -0.551802, "SPATIAL_RE": "1:50000 MAPS", "F_TYPE": 4, "AGENCY": "MISS" }, "geometry": { "type": "Point", "coordinates": [ 37.400901, -0.551802 ] } },
{ "type": "Feature", "properties": { "F_NAME": "DIFATHAS DISP", "PROV": "CENTRAL", "DIST": "KIRINYAGA", "DIVISION": "MWEA", "LOCATION": "MURINDUKO", "SUB_LOCATI": "KAMUNYANGE", "LONG": 37.4125, "LAT": -0.59514, "SPATIAL_RE": "HD MAPS", "F_TYPE": 4, "AGENCY": "MOH" }, "geometry": { "type": "Point", "coordinates": [ 37.4125, -0.59514 ] } },
{ "type": "Feature", "properties": { "F_NAME": "GACHIONGO DISP", "PROV": "CENTRAL", "DIST": "KIRINYAGA", "DIVISION": "GICHUGU", "LOCATION": "NJUKIINI", "SUB_LOCATI": "NGIRIAMBU", "LONG": 37.4056, "LAT": -0.50091, "SPATIAL_RE": "HD MAPS", "F_TYPE": 4, "AGENCY": "MOH" }, "geometry": { "type": "Point", "coordinates": [ 37.4056, -0.50091 ] } },
{ "type": "Feature", "properties": { "F_NAME": "GATHAMBI DISP", "PROV": "CENTRAL", "DIST": "KIRINYAGA", "DIVISION": "CENTRAL", "LOCATION": "INOI", "SUB_LOCATI": "NDIMI", "LONG": 37.2483, "LAT": -0.48343, "SPATIAL_RE": "HD MAPS", "F_TYPE": 4, "AGENCY": "MOH" }, "geometry": { "type": "Point", "coordinates": [ 37.2483, -0.48343 ] } },
{ "type": "Feature", "properties": { "F_NAME": "GATHIGIRIRI DISP", "PROV": "CENTRAL", "DIST": "KIRINYAGA", "DIVISION": "MWEA", "LOCATION": "TEBERE", "SUB_LOCATI": "KARUKUNGU", "LONG": 37.4391, "LAT": -0.71293, "SPATIAL_RE": "HD MAPS", "F_TYPE": 4, "AGENCY": "MOH" }, "geometry": { "type": "Point", "coordinates": [ 37.4391, -0.71293 ] } },
{ "type": "Feature", "properties": { "F_NAME": "GATUGURA DISP", "PROV": "CENTRAL", "DIST": "KIRINYAGA", "DIVISION": "GICHUGU", "LOCATION": "KIRIMA", "SUB_LOCATI": "MUTIGE", "LONG": 37.316, "LAT": -0.45683, "SPATIAL_RE": "HD MAPS", "F_TYPE": 4, "AGENCY": "MOH" }, "geometry": { "type": "Point", "coordinates": [ 37.316, -0.45683 ] } },
{ "type": "Feature", "properties": { "F_NAME": "GATUMBI S D A DISP", "PROV": "CENTRAL", "DIST": "KIRINYAGA", "DIVISION": "GICHUGU", "LOCATION": "NGARIAMA", "SUB_LOCATI": "THIRIKWA", "LONG": 37.3798, "LAT": -0.45759, "SPATIAL_RE": "HD MAPS", "F_TYPE": 4, "AGENCY": "MISS" }, "geometry": { "type": "Point", "coordinates": [ 37.3798, -0.45759 ] } },
{ "type": "Feature", "properties": { "F_NAME": "GATWE DISP", "PROV": "CENTRAL", "DIST": "KIRINYAGA", "DIVISION": "CENTRAL", "LOCATION": "KERUGOYA", "SUB_LOCATI": "KIMANDI", "LONG": 37.284, "LAT": -0.46443, "SPATIAL_RE": "HD MAPS", "F_TYPE": 4, "AGENCY": "MOH" }, "geometry": { "type": "Point", "coordinates": [ 37.284, -0.46443 ] } },
{ "type": "Feature", "properties": { "F_NAME": "GIRIAMBU ACK DISP", "PROV": "CENTRAL", "DIST": "KIRINYAGA", "DIVISION": "GICHUGU", "LOCATION": "NJUKIINI", "SUB_LOCATI": "NGIRIAMBU", "LONG": 37.38695, "LAT": -0.497068, "SPATIAL_RE": "SUBLOC CENTROID", "F_TYPE": 4, "AGENCY": "MISS" }, "geometry": { "type": "Point", "coordinates": [ 37.38695, -0.497068 ] } },
{ "type": "Feature", "properties": { "F_NAME": "GITHUANI C P K DISP", "PROV": "CENTRAL", "DIST": "KIRINYAGA", "DIVISION": "NDIA", "LOCATION": "KIINE SOUTH", "SUB_LOCATI": "THIGIRICHI", "LONG": 37.1792, "LAT": -0.62098, "SPATIAL_RE": "HD MAPS", "F_TYPE": 4, "AGENCY": "MISS" }, "geometry": { "type": "Point", "coordinates": [ 37.1792, -0.62098 ] } },
{ "type": "Feature", "properties": { "F_NAME": "GITHURE DISP", "PROV": "CENTRAL", "DIST": "KIRINYAGA", "DIVISION": "GICHUGU", "LOCATION": "NGARIAMA", "SUB_LOCATI": "THIRIKWA", "LONG": 37.3836, "LAT": -0.47051, "SPATIAL_RE": "HD MAPS", "F_TYPE": 4, "AGENCY": "MISS" }, "geometry": { "type": "Point", "coordinates": [ 37.3836, -0.47051 ] } },
{ "type": "Feature", "properties": { "F_NAME": "JESMOND MBURI DISP", "PROV": "CENTRAL", "DIST": "KIRINYAGA", "DIVISION": "GICHUGU", "LOCATION": "NJUKIINI", "SUB_LOCATI": "MIRICHI", "LONG": 37.3988, "LAT": -0.5237, "SPATIAL_RE": "HD MAPS", "F_TYPE": 4, "AGENCY": "MISS" }, "geometry": { "type": "Point", "coordinates": [ 37.3988, -0.5237 ] } },
{ "type": "Feature", "properties": { "F_NAME": "KABARE DISP", "PROV": "CENTRAL", "DIST": "KIRINYAGA", "DIVISION": "GICHUGU", "LOCATION": "KABARE", "SUB_LOCATI": "KIRITINI", "LONG": 37.3175, "LAT": -0.51458, "SPATIAL_RE": "HD MAPS", "F_TYPE": 4, "AGENCY": "MOH" }, "geometry": { "type": "Point", "coordinates": [ 37.3175, -0.51458 ] } },
{ "type": "Feature", "properties": { "F_NAME": "KAGIO CATHOLIC DISP", "PROV": "CENTRAL", "DIST": "KIRINYAGA", "DIVISION": "NDIA", "LOCATION": "MWERUA", "SUB_LOCATI": "KITHUMBU", "LONG": 37.227, "LAT": -0.63009, "SPATIAL_RE": "HD MAPS", "F_TYPE": 4, "AGENCY": "MISS" }, "geometry": { "type": "Point", "coordinates": [ 37.227, -0.63009 ] } },
{ "type": "Feature", "properties": { "F_NAME": "KAGUMO DISP", "PROV": "CENTRAL", "DIST": "KIRINYAGA", "DIVISION": "NDIA", "LOCATION": "MUTIRA", "SUB_LOCATI": "KABARI(NDIA)", "LONG": 37.23641, "LAT": -0.47139, "SPATIAL_RE": "GPS", "F_TYPE": 4, "AGENCY": "MOH" }, "geometry": { "type": "Point", "coordinates": [ 37.23641, -0.47139 ] } },
{ "type": "Feature", "properties": { "F_NAME": "KAMWETI DISP", "PROV": "CENTRAL", "DIST": "KIRINYAGA", "DIVISION": "GICHUGU", "LOCATION": "KIRIMA", "SUB_LOCATI": "NJUKU", "LONG": 37.3099, "LAT": -0.44391, "SPATIAL_RE": "HD MAPS", "F_TYPE": 4, "AGENCY": "MOH" }, "geometry": { "type": "Point", "coordinates": [ 37.3099, -0.44391 ] } },
{ "type": "Feature", "properties": { "F_NAME": "KANDONGO DISP", "PROV": "CENTRAL", "DIST": "KIRINYAGA", "DIVISION": "MWEA", "LOCATION": "THIBA", "SUB_LOCATI": "NGUKA", "LONG": 37.3038, "LAT": -0.66505, "SPATIAL_RE": "HD MAPS", "F_TYPE": 4, "AGENCY": "MOH" }, "geometry": { "type": "Point", "coordinates": [ 37.3038, -0.66505 ] } },
{ "type": "Feature", "properties": { "F_NAME": "KANGAITA DISP", "PROV": "CENTRAL", "DIST": "KIRINYAGA", "DIVISION": "CENTRAL", "LOCATION": "KERUGOYA", "SUB_LOCATI": "KAGUYU(CENTRAL)", "LONG": 37.2719, "LAT": -0.48951, "SPATIAL_RE": "HD MAPS", "F_TYPE": 4, "AGENCY": "MOH" }, "geometry": { "type": "Point", "coordinates": [ 37.2719, -0.48951 ] } },
{ "type": "Feature", "properties": { "F_NAME": "KANGARU HEALTH CENTRE", "PROV": "CENTRAL", "DIST": "KIRINYAGA", "DIVISION": "NDIA", "LOCATION": "MWERUA", "SUB_LOCATI": "MAITHARUI", "LONG": 37.221234, "LAT": -0.582134, "SPATIAL_RE": "1:50000 MAPS", "F_TYPE": 3, "AGENCY": "MOH" }, "geometry": { "type": "Point", "coordinates": [ 37.221234, -0.582134 ] } },
{ "type": "Feature", "properties": { "F_NAME": "KARAINI C P K DISP", "PROV": "CENTRAL", "DIST": "KIRINYAGA", "DIVISION": "CENTRAL", "LOCATION": "KERUGOYA", "SUB_LOCATI": "KAGUYU(CENTRAL)", "LONG": 37.2726, "LAT": -0.50243, "SPATIAL_RE": "HD MAPS", "F_TYPE": 4, "AGENCY": "MISS" }, "geometry": { "type": "Point", "coordinates": [ 37.2726, -0.50243 ] } },
{ "type": "Feature", "properties": { "F_NAME": "KARUMANDI DISP", "PROV": "CENTRAL", "DIST": "KIRINYAGA", "DIVISION": "GICHUGU", "LOCATION": "KARUMANDI", "SUB_LOCATI": "KIARURI", "LONG": 37.3456, "LAT": -0.45683, "SPATIAL_RE": "HD MAPS", "F_TYPE": 4, "AGENCY": "MOH" }, "geometry": { "type": "Point", "coordinates": [ 37.3456, -0.45683 ] } },
{ "type": "Feature", "properties": { "F_NAME": "KERUGOYA CATHOLIC DISP", "PROV": "CENTRAL", "DIST": "KIRINYAGA", "DIVISION": "CENTRAL", "LOCATION": "KERUGOYA", "SUB_LOCATI": "KAGUYU(CENTRAL)", "LONG": 37.27838, "LAT": -0.49509, "SPATIAL_RE": "GPS", "F_TYPE": 4, "AGENCY": "MISS" }, "geometry": { "type": "Point", "coordinates": [ 37.27838, -0.49509 ] } },
{ "type": "Feature", "properties": { "F_NAME": "KERUGOYA CPK DISP", "PROV": "CENTRAL", "DIST": "KIRINYAGA", "DIVISION": "CENTRAL", "LOCATION": "KERUGOYA", "SUB_LOCATI": "KAGUYU(CENTRAL)", "LONG": 37.27819, "LAT": -0.50107, "SPATIAL_RE": "GPS", "F_TYPE": 4, "AGENCY": "MISS" }, "geometry": { "type": "Point", "coordinates": [ 37.27819, -0.50107 ] } },
{ "type": "Feature", "properties": { "F_NAME": "KERUGOYA DISTRICT HOSPITAL", "PROV": "CENTRAL", "DIST": "KIRINYAGA", "DIVISION": "CENTRAL", "LOCATION": "KERUGOYA", "SUB_LOCATI": "KAGUYU(CENTRAL)", "LONG": 37.2805, "LAT": -0.50132, "SPATIAL_RE": "GPS", "F_TYPE": 1, "AGENCY": "MOH" }, "geometry": { "type": "Point", "coordinates": [ 37.2805, -0.50132 ] } },
{ "type": "Feature", "properties": { "F_NAME": "KIAMUTUGU HEALTH CENTRE", "PROV": "CENTRAL", "DIST": "KIRINYAGA", "DIVISION": "GICHUGU", "LOCATION": "NJUKIINI", "SUB_LOCATI": "NGERWE", "LONG": 37.4018, "LAT": -0.47279, "SPATIAL_RE": "HD MAPS", "F_TYPE": 3, "AGENCY": "MOH" }, "geometry": { "type": "Point", "coordinates": [ 37.4018, -0.47279 ] } },
{ "type": "Feature", "properties": { "F_NAME": "KIANDAI ACK DISP", "PROV": "CENTRAL", "DIST": "KIRINYAGA", "DIVISION": "GICHUGU", "LOCATION": "KIRIMA", "SUB_LOCATI": "GACHIGI", "LONG": 37.3, "LAT": -0.48, "SPATIAL_RE": "ILRI VILLAGES", "F_TYPE": 4, "AGENCY": "MISS" }, "geometry": { "type": "Point", "coordinates": [ 37.3, -0.48 ] } },
{ "type": "Feature", "properties": { "F_NAME": "KIANGAI DISP", "PROV": "CENTRAL", "DIST": "KIRINYAGA", "DIVISION": "NDIA", "LOCATION": "MUKURE", "SUB_LOCATI": "MUKURE", "LONG": 37.2073, "LAT": -0.48115, "SPATIAL_RE": "HD MAPS", "F_TYPE": 4, "AGENCY": "MOH" }, "geometry": { "type": "Point", "coordinates": [ 37.2073, -0.48115 ] } },
{ "type": "Feature", "properties": { "F_NAME": "KIANG'OMBE DISP", "PROV": "CENTRAL", "DIST": "KIRINYAGA", "DIVISION": "GICHUGU", "LOCATION": "KABARE", "SUB_LOCATI": "KIRITINI", "LONG": 37.3129, "LAT": -0.49635, "SPATIAL_RE": "HD MAPS", "F_TYPE": 4, "AGENCY": "MOH" }, "geometry": { "type": "Point", "coordinates": [ 37.3129, -0.49635 ] } },
{ "type": "Feature", "properties": { "F_NAME": "KIANJEGE DISP", "PROV": "CENTRAL", "DIST": "KIRINYAGA", "DIVISION": "NDIA", "LOCATION": "KIINE SOUTH", "SUB_LOCATI": "NYANGIO", "LONG": 37.1624, "LAT": -0.5883, "SPATIAL_RE": "HD MAPS", "F_TYPE": 4, "AGENCY": "MOH" }, "geometry": { "type": "Point", "coordinates": [ 37.1624, -0.5883 ] } },
{ "type": "Feature", "properties": { "F_NAME": "KIANYAGA H C", "PROV": "CENTRAL", "DIST": "KIRINYAGA", "DIVISION": "GICHUGU", "LOCATION": "BARAGWI", "SUB_LOCATI": "GATU", "LONG": 37.3296, "LAT": -0.50091, "SPATIAL_RE": "HD MAPS", "F_TYPE": 3, "AGENCY": "MOH" }, "geometry": { "type": "Point", "coordinates": [ 37.3296, -0.50091 ] } },
{ "type": "Feature", "properties": { "F_NAME": "KIANYAGA MISS H C", "PROV": "CENTRAL", "DIST": "KIRINYAGA", "DIVISION": "GICHUGU", "LOCATION": "BARAGWI", "SUB_LOCATI": "RWAMBITI", "LONG": 37.3426, "LAT": -0.51079, "SPATIAL_RE": "HD MAPS", "F_TYPE": 3, "AGENCY": "MISS" }, "geometry": { "type": "Point", "coordinates": [ 37.3426, -0.51079 ] } },
{ "type": "Feature", "properties": { "F_NAME": "KIARAGANA DISP", "PROV": "CENTRAL", "DIST": "KIRINYAGA", "DIVISION": "NDIA", "LOCATION": "MUKURE", "SUB_LOCATI": "KANYOKORA", "LONG": 37.2035, "LAT": -0.51231, "SPATIAL_RE": "HD MAPS", "F_TYPE": 4, "AGENCY": "MOH" }, "geometry": { "type": "Point", "coordinates": [ 37.2035, -0.51231 ] } },
{ "type": "Feature", "properties": { "F_NAME": "KIBIRIGWI DISP", "PROV": "CENTRAL", "DIST": "KIRINYAGA", "DIVISION": "NDIA", "LOCATION": "KIINE SOUTH", "SUB_LOCATI": "NYANGIO", "LONG": 37.1495, "LAT": -0.55638, "SPATIAL_RE": "HD MAPS", "F_TYPE": 4, "AGENCY": "MOH" }, "geometry": { "type": "Point", "coordinates": [ 37.1495, -0.55638 ] } },
{ "type": "Feature", "properties": { "F_NAME": "KIMBIMBI HEALTH CENTRE", "PROV": "CENTRAL", "DIST": "KIRINYAGA", "DIVISION": "MWEA", "LOCATION": "NYANGATI", "SUB_LOCATI": "NYANGATI", "LONG": 37.3651, "LAT": -0.61705, "SPATIAL_RE": "GPS", "F_TYPE": 3, "AGENCY": "MOH" }, "geometry": { "type": "Point", "coordinates": [ 37.3651, -0.61705 ] } },
{ "type": "Feature", "properties": { "F_NAME": "KIUMBUINI DISP", "PROV": "CENTRAL", "DIST": "KIRINYAGA", "DIVISION": "MWEA", "LOCATION": "TEBERE", "SUB_LOCATI": "KARUKUNGU", "LONG": 37.474, "LAT": -0.72129, "SPATIAL_RE": "HD MAPS", "F_TYPE": 4, "AGENCY": "MOH" }, "geometry": { "type": "Point", "coordinates": [ 37.474, -0.72129 ] } },
{ "type": "Feature", "properties": { "F_NAME": "KUTUS CATHOLIC DISP", "PROV": "CENTRAL", "DIST": "KIRINYAGA", "DIVISION": "CENTRAL", "LOCATION": "KUTUS", "SUB_LOCATI": "KAMUIGUA", "LONG": 37.32517, "LAT": -0.56432, "SPATIAL_RE": "GPS", "F_TYPE": 4, "AGENCY": "MISS" }, "geometry": { "type": "Point", "coordinates": [ 37.32517, -0.56432 ] } },
{ "type": "Feature", "properties": { "F_NAME": "MBIRI ACK DISP", "PROV": "CENTRAL", "DIST": "KIRINYAGA", "DIVISION": "GICHUGU", "LOCATION": "NJUKIINI", "SUB_LOCATI": "NGERWE", "LONG": 37.4, "LAT": -0.48, "SPATIAL_RE": "ILRI VILLAGES", "F_TYPE": 4, "AGENCY": "MISS" }, "geometry": { "type": "Point", "coordinates": [ 37.4, -0.48 ] } },
{ "type": "Feature", "properties": { "F_NAME": "MBURI ACK DISP", "PROV": "CENTRAL", "DIST": "KIRINYAGA", "DIVISION": "CENTRAL", "LOCATION": "KERUGOYA", "SUB_LOCATI": "KAITHERI", "LONG": 37.29279, "LAT": -0.52252, "SPATIAL_RE": "1:50000 MAPS", "F_TYPE": 4, "AGENCY": "MISS" }, "geometry": { "type": "Point", "coordinates": [ 37.29279, -0.52252 ] } },
{ "type": "Feature", "properties": { "F_NAME": "MUGUMO (ACK) DISP", "PROV": "CENTRAL", "DIST": "KIRINYAGA", "DIVISION": "GICHUGU", "LOCATION": "KIRIMA", "SUB_LOCATI": "NJUKU", "LONG": 37.30495, "LAT": -0.432433, "SPATIAL_RE": "1:50000 MAPS", "F_TYPE": 4, "AGENCY": "MISS" }, "geometry": { "type": "Point", "coordinates": [ 37.30495, -0.432433 ] } },
{ "type": "Feature", "properties": { "F_NAME": "MUMBUINI DISP", "PROV": "CENTRAL", "DIST": "KIRINYAGA", "DIVISION": "MWEA", "LOCATION": "MURINDUKO", "SUB_LOCATI": "MIUU", "LONG": 37.4634, "LAT": -0.67797, "SPATIAL_RE": "HD MAPS", "F_TYPE": 4, "AGENCY": "MOH" }, "geometry": { "type": "Point", "coordinates": [ 37.4634, -0.67797 ] } },
{ "type": "Feature", "properties": { "F_NAME": "MUNGANGA CPK DISP", "PROV": "CENTRAL", "DIST": "KIRINYAGA", "DIVISION": "NDIA", "LOCATION": "MWERUA", "SUB_LOCATI": "KITHUMBU", "LONG": 37.254, "LAT": -0.621, "SPATIAL_RE": "ILRI MKT CENTRES", "F_TYPE": 4, "AGENCY": "MISS" }, "geometry": { "type": "Point", "coordinates": [ 37.254, -0.621 ] } },
{ "type": "Feature", "properties": { "F_NAME": "MURINDUKO DISP", "PROV": "CENTRAL", "DIST": "KIRINYAGA", "DIVISION": "MWEA", "LOCATION": "MURINDUKO", "SUB_LOCATI": "MUGAMBA-CIURA", "LONG": 37.44077, "LAT": -0.57294, "SPATIAL_RE": "GPS", "F_TYPE": 4, "AGENCY": "MOH" }, "geometry": { "type": "Point", "coordinates": [ 37.44077, -0.57294 ] } },
{ "type": "Feature", "properties": { "F_NAME": "MUTHITHI DISP", "PROV": "CENTRAL", "DIST": "KIRINYAGA", "DIVISION": "MWEA", "LOCATION": "MUTITHI", "SUB_LOCATI": "KABIRIRI", "LONG": 37.3038, "LAT": -0.73269, "SPATIAL_RE": "HD MAPS", "F_TYPE": 4, "AGENCY": "MOH" }, "geometry": { "type": "Point", "coordinates": [ 37.3038, -0.73269 ] } },
{ "type": "Feature", "properties": { "F_NAME": "MUTIRA ACK DISP", "PROV": "CENTRAL", "DIST": "KIRINYAGA", "DIVISION": "NDIA", "LOCATION": "MUTIRA", "SUB_LOCATI": "KAGUMO(KIRINYAGA)", "LONG": 37.23, "LAT": -0.48, "SPATIAL_RE": "ILRI VILLAGES", "F_TYPE": 4, "AGENCY": "MISS" }, "geometry": { "type": "Point", "coordinates": [ 37.23, -0.48 ] } },
{ "type": "Feature", "properties": { "F_NAME": "MWEA MISS HOSPITAL", "PROV": "CENTRAL", "DIST": "KIRINYAGA", "DIVISION": "MWEA", "LOCATION": "THIBA", "SUB_LOCATI": "NGUKA", "LONG": 37.34924, "LAT": -0.66137, "SPATIAL_RE": "GPS", "F_TYPE": 1, "AGENCY": "MISS" }, "geometry": { "type": "Point", "coordinates": [ 37.34924, -0.66137 ] } },
{ "type": "Feature", "properties": { "F_NAME": "NGIRIAMBU DISP", "PROV": "CENTRAL", "DIST": "KIRINYAGA", "DIVISION": "GICHUGU", "LOCATION": "NJUKIINI", "SUB_LOCATI": "NGIRIAMBU", "LONG": 37.3828, "LAT": -0.50167, "SPATIAL_RE": "HD MAPS", "F_TYPE": 4, "AGENCY": "MISS" }, "geometry": { "type": "Point", "coordinates": [ 37.3828, -0.50167 ] } },
{ "type": "Feature", "properties": { "F_NAME": "NGUKA DISP", "PROV": "CENTRAL", "DIST": "KIRINYAGA", "DIVISION": "MWEA", "LOCATION": "THIBA", "SUB_LOCATI": "THIBA", "LONG": 37.316, "LAT": -0.68633, "SPATIAL_RE": "HD MAPS", "F_TYPE": 4, "AGENCY": "MOH" }, "geometry": { "type": "Point", "coordinates": [ 37.316, -0.68633 ] } },
{ "type": "Feature", "properties": { "F_NAME": "NJEGAS DISP", "PROV": "CENTRAL", "DIST": "KIRINYAGA", "DIVISION": "MWEA", "LOCATION": "MUTITHI", "SUB_LOCATI": "KABIRIRI", "LONG": 37.2924, "LAT": -0.70913, "SPATIAL_RE": "HD MAPS", "F_TYPE": 4, "AGENCY": "MOH" }, "geometry": { "type": "Point", "coordinates": [ 37.2924, -0.70913 ] } },
{ "type": "Feature", "properties": { "F_NAME": "SAGANA H C", "PROV": "CENTRAL", "DIST": "KIRINYAGA", "DIVISION": "NDIA", "LOCATION": "KIINE SOUTH", "SUB_LOCATI": "SAGANA(KIRINYAGA)", "LONG": 37.2187, "LAT": -0.67113, "SPATIAL_RE": "HD MAPS", "F_TYPE": 3, "AGENCY": "MOH" }, "geometry": { "type": "Point", "coordinates": [ 37.2187, -0.67113 ] } },
{ "type": "Feature", "properties": { "F_NAME": "SAGANA MISS DISP", "PROV": "CENTRAL", "DIST": "KIRINYAGA", "DIVISION": "NDIA", "LOCATION": "KIINE SOUTH", "SUB_LOCATI": "SAGANA(KIRINYAGA)", "LONG": 37.2308, "LAT": -0.65213, "SPATIAL_RE": "HD MAPS", "F_TYPE": 4, "AGENCY": "MISS" }, "geometry": { "type": "Point", "coordinates": [ 37.2308, -0.65213 ] } },
{ "type": "Feature", "properties": { "F_NAME": "ST ANDREWS MBIRI DISP", "PROV": "CENTRAL", "DIST": "KIRINYAGA", "DIVISION": "GICHUGU", "LOCATION": "KABARE", "SUB_LOCATI": "KIRITINI", "LONG": 37.3258, "LAT": -0.51838, "SPATIAL_RE": "HD MAPS", "F_TYPE": 4, "AGENCY": "MISS" }, "geometry": { "type": "Point", "coordinates": [ 37.3258, -0.51838 ] } },
{ "type": "Feature", "properties": { "F_NAME": "ST LUKE'S MUNGAGA DISP", "PROV": "CENTRAL", "DIST": "KIRINYAGA", "DIVISION": "MWEA", "LOCATION": "MUTITHI", "SUB_LOCATI": "RUKANGA(KIRINYAGA)", "LONG": 37.262, "LAT": -0.72281, "SPATIAL_RE": "HD MAPS", "F_TYPE": 4, "AGENCY": "MISS" }, "geometry": { "type": "Point", "coordinates": [ 37.262, -0.72281 ] } },
{ "type": "Feature", "properties": { "F_NAME": "THIBA DISP", "PROV": "CENTRAL", "DIST": "KIRINYAGA", "DIVISION": "MWEA", "LOCATION": "THIBA", "SUB_LOCATI": "THIBA", "LONG": 37.3327, "LAT": -0.70457, "SPATIAL_RE": "HD MAPS", "F_TYPE": 4, "AGENCY": "MOH" }, "geometry": { "type": "Point", "coordinates": [ 37.3327, -0.70457 ] } },
{ "type": "Feature", "properties": { "F_NAME": "THUMAITA DISP", "PROV": "CENTRAL", "DIST": "KIRINYAGA", "DIVISION": "GICHUGU", "LOCATION": "KARUMANDI", "SUB_LOCATI": "THUMAITA", "LONG": 37.3585, "LAT": -0.43935, "SPATIAL_RE": "HD MAPS", "F_TYPE": 4, "AGENCY": "MISS" }, "geometry": { "type": "Point", "coordinates": [ 37.3585, -0.43935 ] } },
{ "type": "Feature", "properties": { "F_NAME": "AIC MUNUNGA DISP", "PROV": "CENTRAL", "DIST": "MARAGUA", "DIVISION": "KIGUMO", "LOCATION": "KINYONA", "SUB_LOCATI": "GACHARAGE(KIGUMO)", "LONG": 36.852509, "LAT": -0.739723, "SPATIAL_RE": "ILRI MKT CENTRES", "F_TYPE": 4, "AGENCY": "MISS" }, "geometry": { "type": "Point", "coordinates": [ 36.852509, -0.739723 ] } },
{ "type": "Feature", "properties": { "F_NAME": "DON BOSCO MAKUYU DISP", "PROV": "CENTRAL", "DIST": "MARAGUA", "DIVISION": "MAKUYU", "LOCATION": "MAKUYU", "SUB_LOCATI": "GAKUNGU", "LONG": 37.19762, "LAT": -0.9064, "SPATIAL_RE": "GPS", "F_TYPE": 4, "AGENCY": "MISS" }, "geometry": { "type": "Point", "coordinates": [ 37.19762, -0.9064 ] } },
{ "type": "Feature", "properties": { "F_NAME": "GAICHANJIRU MISSION HOSPITAL", "PROV": "CENTRAL", "DIST": "MARAGUA", "DIVISION": "KANDARA", "LOCATION": "ITHIRU", "SUB_LOCATI": "GAKUI\/KARIMAMWARO", "LONG": 36.977445, "LAT": -0.852765, "SPATIAL_RE": "DHMT", "F_TYPE": 1, "AGENCY": "MISS" }, "geometry": { "type": "Point", "coordinates": [ 36.977445, -0.852765 ] } },
{ "type": "Feature", "properties": { "F_NAME": "GIKOE DISP", "PROV": "CENTRAL", "DIST": "MARAGUA", "DIVISION": "KIGUMO", "LOCATION": "KINYONA", "SUB_LOCATI": "KAMUKABI", "LONG": 36.9013, "LAT": -0.761775, "SPATIAL_RE": "1:50000 MAPS", "F_TYPE": 4, "AGENCY": "MOH" }, "geometry": { "type": "Point", "coordinates": [ 36.9013, -0.761775 ] } },
{ "type": "Feature", "properties": { "F_NAME": "GITHUMU HEALTH CENTRE", "PROV": "CENTRAL", "DIST": "MARAGUA", "DIVISION": "KANDARA", "LOCATION": "RUCHU", "SUB_LOCATI": "GITHUMU", "LONG": 36.9, "LAT": -0.82, "SPATIAL_RE": "ILRI VILLAGES", "F_TYPE": 3, "AGENCY": "MISS" }, "geometry": { "type": "Point", "coordinates": [ 36.9, -0.82 ] } },
{ "type": "Feature", "properties": { "F_NAME": "GITURU DISP", "PROV": "CENTRAL", "DIST": "MARAGUA", "DIVISION": "KANDARA", "LOCATION": "RUCHU", "SUB_LOCATI": "GITURU", "LONG": 36.8668, "LAT": -0.81464, "SPATIAL_RE": "1:50000 MAPS", "F_TYPE": 4, "AGENCY": "MISS" }, "geometry": { "type": "Point", "coordinates": [ 36.8668, -0.81464 ] } },
{ "type": "Feature", "properties": { "F_NAME": "ICHAGAKI HEALTH CENTRE", "PROV": "CENTRAL", "DIST": "MARAGUA", "DIVISION": "MARAGUA", "LOCATION": "ICHAGAKI", "SUB_LOCATI": "ICHAGAKI", "LONG": 37.070665, "LAT": -0.816915, "SPATIAL_RE": "DHMT", "F_TYPE": 3, "AGENCY": "MISS" }, "geometry": { "type": "Point", "coordinates": [ 37.070665, -0.816915 ] } },
{ "type": "Feature", "properties": { "F_NAME": "KAGUMOINI DISP", "PROV": "CENTRAL", "DIST": "MARAGUA", "DIVISION": "KANDARA", "LOCATION": "GAICHANJIRU", "SUB_LOCATI": "KAGUMOINI(MARAGUA)", "LONG": 37.080265, "LAT": -0.891818, "SPATIAL_RE": "DHMT", "F_TYPE": 4, "AGENCY": "MOH" }, "geometry": { "type": "Point", "coordinates": [ 37.080265, -0.891818 ] } },
{ "type": "Feature", "properties": { "F_NAME": "KAGUTHI DISP", "PROV": "CENTRAL", "DIST": "MARAGUA", "DIVISION": "KANDARA", "LOCATION": "ITHIRU", "SUB_LOCATI": "KAGUTHI", "LONG": 36.96123, "LAT": -0.881234, "SPATIAL_RE": "1:50000 MAPS", "F_TYPE": 4, "AGENCY": "MOH" }, "geometry": { "type": "Point", "coordinates": [ 36.96123, -0.881234 ] } },
{ "type": "Feature", "properties": { "F_NAME": "KAGWATHI SDA DISP", "PROV": "CENTRAL", "DIST": "MARAGUA", "DIVISION": "MARAGUA", "LOCATION": "KAHUMBU", "SUB_LOCATI": "MUGUMOINI(MARAG)", "LONG": 37.07856, "LAT": -0.85942, "SPATIAL_RE": "GPS", "F_TYPE": 4, "AGENCY": "MISS" }, "geometry": { "type": "Point", "coordinates": [ 37.07856, -0.85942 ] } },
{ "type": "Feature", "properties": { "F_NAME": "KAMAHUHA DISP", "PROV": "CENTRAL", "DIST": "MARAGUA", "DIVISION": "MAKUYU", "LOCATION": "KAMAHUHA", "SUB_LOCATI": "KAMAHUHA", "LONG": 37.17814, "LAT": -0.84289, "SPATIAL_RE": "GPS", "F_TYPE": 4, "AGENCY": "MOH" }, "geometry": { "type": "Point", "coordinates": [ 37.17814, -0.84289 ] } },
{ "type": "Feature", "properties": { "F_NAME": "KAMBITI DISP", "PROV": "CENTRAL", "DIST": "MARAGUA", "DIVISION": "MAKUYU", "LOCATION": "KAMBITI", "SUB_LOCATI": "KAMBITI(MARAGUA)", "LONG": 37.25123, "LAT": -0.812354, "SPATIAL_RE": "1:50000 MAPS", "F_TYPE": 4, "AGENCY": "MOH" }, "geometry": { "type": "Point", "coordinates": [ 37.25123, -0.812354 ] } },
{ "type": "Feature", "properties": { "F_NAME": "KAMUNGANGA DISP", "PROV": "CENTRAL", "DIST": "MARAGUA", "DIVISION": "KIGUMO", "LOCATION": "KIGUMO", "SUB_LOCATI": "GACHOCHO", "LONG": 36.976049, "LAT": -0.785806, "SPATIAL_RE": "DHMT", "F_TYPE": 4, "AGENCY": "MISS" }, "geometry": { "type": "Point", "coordinates": [ 36.976049, -0.785806 ] } },
{ "type": "Feature", "properties": { "F_NAME": "KANDARA HEALTH CENTRE", "PROV": "CENTRAL", "DIST": "MARAGUA", "DIVISION": "KANDARA", "LOCATION": "MURUKA", "SUB_LOCATI": "GATITU\/NGUTHIRU", "LONG": 37.038699, "LAT": -0.897239, "SPATIAL_RE": "DHMT", "F_TYPE": 3, "AGENCY": "MOH" }, "geometry": { "type": "Point", "coordinates": [ 37.038699, -0.897239 ] } },
{ "type": "Feature", "properties": { "F_NAME": "KANDERENDU DISP", "PROV": "CENTRAL", "DIST": "MARAGUA", "DIVISION": "KIGUMO", "LOCATION": "KANGARI", "SUB_LOCATI": "MAKOMBOKI", "LONG": 36.797738, "LAT": -0.781589, "SPATIAL_RE": "DHMT", "F_TYPE": 4, "AGENCY": "MOH" }, "geometry": { "type": "Point", "coordinates": [ 36.797738, -0.781589 ] } },
{ "type": "Feature", "properties": { "F_NAME": "KANGARI DISP", "PROV": "CENTRAL", "DIST": "MARAGUA", "DIVISION": "KIGUMO", "LOCATION": "KANGARI", "SUB_LOCATI": "KANGARI", "LONG": 36.851234, "LAT": -0.781234, "SPATIAL_RE": "1:50000 MAPS", "F_TYPE": 4, "AGENCY": "MOH" }, "geometry": { "type": "Point", "coordinates": [ 36.851234, -0.781234 ] } },
{ "type": "Feature", "properties": { "F_NAME": "KARITI DISP", "PROV": "CENTRAL", "DIST": "MARAGUA", "DIVISION": "KANDARA", "LOCATION": "KAGUNDUINI", "SUB_LOCATI": "KARITI", "LONG": 37.01707, "LAT": -0.86633, "SPATIAL_RE": "GPS", "F_TYPE": 4, "AGENCY": "MOH" }, "geometry": { "type": "Point", "coordinates": [ 37.01707, -0.86633 ] } },
{ "type": "Feature", "properties": { "F_NAME": "KARIUA DISP", "PROV": "CENTRAL", "DIST": "MARAGUA", "DIVISION": "KANDARA", "LOCATION": "RUCHU", "SUB_LOCATI": "KARIUA", "LONG": 36.97549, "LAT": -0.83194, "SPATIAL_RE": "GPS", "F_TYPE": 4, "AGENCY": "MOH" }, "geometry": { "type": "Point", "coordinates": [ 36.97549, -0.83194 ] } },
{ "type": "Feature", "properties": { "F_NAME": "KINYONA DISP", "PROV": "CENTRAL", "DIST": "MARAGUA", "DIVISION": "KIGUMO", "LOCATION": "KINYONA", "SUB_LOCATI": "KINYONA", "LONG": 36.827, "LAT": -0.748188, "SPATIAL_RE": "1:50000 MAPS", "F_TYPE": 4, "AGENCY": "MISS" }, "geometry": { "type": "Point", "coordinates": [ 36.827, -0.748188 ] } },
{ "type": "Feature", "properties": { "F_NAME": "MAKUYU HEALTH CENTRE", "PROV": "CENTRAL", "DIST": "MARAGUA", "DIVISION": "MAKUYU", "LOCATION": "MAKUYU", "SUB_LOCATI": "MAKUYU", "LONG": 37.18661, "LAT": -0.89406, "SPATIAL_RE": "GPS", "F_TYPE": 3, "AGENCY": "MOH" }, "geometry": { "type": "Point", "coordinates": [ 37.18661, -0.89406 ] } },
{ "type": "Feature", "properties": { "F_NAME": "MARAGUA DISTRICT HOSPITAL (RHTC)", "PROV": "CENTRAL", "DIST": "MARAGUA", "DIVISION": "MARAGUA", "LOCATION": "NGINDA", "SUB_LOCATI": "GAKOIGO", "LONG": 37.12663, "LAT": -0.78693, "SPATIAL_RE": "GPS", "F_TYPE": 1, "AGENCY": "MOH" }, "geometry": { "type": "Point", "coordinates": [ 37.12663, -0.78693 ] } },
{ "type": "Feature", "properties": { "F_NAME": "MARAGUA RIDGE HEALTH CENTRE", "PROV": "CENTRAL", "DIST": "MARAGUA", "DIVISION": "MARAGUA", "LOCATION": "MARAGUA RIDGE", "SUB_LOCATI": "MARAGUA RIDGE", "LONG": 37.2, "LAT": -0.77, "SPATIAL_RE": "ILRI VILLAGES", "F_TYPE": 3, "AGENCY": "MOH" }, "geometry": { "type": "Point", "coordinates": [ 37.2, -0.77 ] } },
{ "type": "Feature", "properties": { "F_NAME": "MARANJAU GK PRISON DISP", "PROV": "CENTRAL", "DIST": "MARAGUA", "DIVISION": "MAKUYU", "LOCATION": "KAMBITI", "SUB_LOCATI": "MARANJAU", "LONG": 37.209983, "LAT": -0.803599, "SPATIAL_RE": "DHMT", "F_TYPE": 4, "AGENCY": "MOH" }, "geometry": { "type": "Point", "coordinates": [ 37.209983, -0.803599 ] } },
{ "type": "Feature", "properties": { "F_NAME": "MARIRA DISP", "PROV": "CENTRAL", "DIST": "MARAGUA", "DIVISION": "KIGUMO", "LOCATION": "KANGARI", "SUB_LOCATI": "MARIIRA", "LONG": 36.9348, "LAT": -0.79846, "SPATIAL_RE": "1:50000 MAPS", "F_TYPE": 4, "AGENCY": "MISS" }, "geometry": { "type": "Point", "coordinates": [ 36.9348, -0.79846 ] } },
{ "type": "Feature", "properties": { "F_NAME": "MUGUMOINI DISP", "PROV": "CENTRAL", "DIST": "MARAGUA", "DIVISION": "MARAGUA", "LOCATION": "KAHUMBU", "SUB_LOCATI": "MUGUMOINI(MARAG)", "LONG": 37.0772, "LAT": -0.84768, "SPATIAL_RE": "GPS", "F_TYPE": 4, "AGENCY": "MOH" }, "geometry": { "type": "Point", "coordinates": [ 37.0772, -0.84768 ] } },
{ "type": "Feature", "properties": { "F_NAME": "MURUKA DISP", "PROV": "CENTRAL", "DIST": "MARAGUA", "DIVISION": "KANDARA", "LOCATION": "MURUKA", "SUB_LOCATI": "MURUKA", "LONG": 37.05976, "LAT": -0.92799, "SPATIAL_RE": "GPS", "F_TYPE": 4, "AGENCY": "MOH" }, "geometry": { "type": "Point", "coordinates": [ 37.05976, -0.92799 ] } },
{ "type": "Feature", "properties": { "F_NAME": "MUTHERU DISP", "PROV": "CENTRAL", "DIST": "MARAGUA", "DIVISION": "KANDARA", "LOCATION": "RUCHU", "SUB_LOCATI": "GACHARAGE(KANDARA)", "LONG": 36.951802, "LAT": -0.817568, "SPATIAL_RE": "1:50000 MAPS", "F_TYPE": 4, "AGENCY": "MOH" }, "geometry": { "type": "Point", "coordinates": [ 36.951802, -0.817568 ] } },
{ "type": "Feature", "properties": { "F_NAME": "MUTHITHI DISP", "PROV": "CENTRAL", "DIST": "MARAGUA", "DIVISION": "MARAGUA", "LOCATION": "ICHAGAKI", "SUB_LOCATI": "GIKOMORA", "LONG": 37.0485, "LAT": -0.810626, "SPATIAL_RE": "1:50000 MAPS", "F_TYPE": 4, "AGENCY": "MISS" }, "geometry": { "type": "Point", "coordinates": [ 37.0485, -0.810626 ] } },
{ "type": "Feature", "properties": { "F_NAME": "MUTHITHI DISP", "PROV": "CENTRAL", "DIST": "MARAGUA", "DIVISION": "MARAGUA", "LOCATION": "ICHAGAKI", "SUB_LOCATI": "GIKOMORA", "LONG": 37.044121, "LAT": -0.801467, "SPATIAL_RE": "DHMT", "F_TYPE": 4, "AGENCY": "MOH" }, "geometry": { "type": "Point", "coordinates": [ 37.044121, -0.801467 ] } },
{ "type": "Feature", "properties": { "F_NAME": "NAARO DISP", "PROV": "CENTRAL", "DIST": "MARAGUA", "DIVISION": "KANDARA", "LOCATION": "MURUKA", "SUB_LOCATI": "NAARO", "LONG": 37.0322, "LAT": -0.93433, "SPATIAL_RE": "1:50000 MAPS", "F_TYPE": 4, "AGENCY": "MOH" }, "geometry": { "type": "Point", "coordinates": [ 37.0322, -0.93433 ] } },
{ "type": "Feature", "properties": { "F_NAME": "NGURUWENI DISP", "PROV": "CENTRAL", "DIST": "MARAGUA", "DIVISION": "KANDARA", "LOCATION": "GAICHANJIRU", "SUB_LOCATI": "NGURWE-INI", "LONG": 37.0593, "LAT": -0.87088, "SPATIAL_RE": "GPS", "F_TYPE": 4, "AGENCY": "MOH" }, "geometry": { "type": "Point", "coordinates": [ 37.0593, -0.87088 ] } },
{ "type": "Feature", "properties": { "F_NAME": "RUCHU DISP", "PROV": "CENTRAL", "DIST": "MARAGUA", "DIVISION": "KANDARA", "LOCATION": "ITHIRU", "SUB_LOCATI": "KIIRI", "LONG": 37.00208, "LAT": -0.89808, "SPATIAL_RE": "GPS", "F_TYPE": 4, "AGENCY": "MISS" }, "geometry": { "type": "Point", "coordinates": [ 37.00208, -0.89808 ] } },
{ "type": "Feature", "properties": { "F_NAME": "SABASABA (CATHOLIC ) DISP", "PROV": "CENTRAL", "DIST": "MARAGUA", "DIVISION": "MAKUYU", "LOCATION": "KAMAHUHA", "SUB_LOCATI": "SABA SABA", "LONG": 37.15, "LAT": -0.87, "SPATIAL_RE": "ILRI VILLAGES", "F_TYPE": 4, "AGENCY": "MISS" }, "geometry": { "type": "Point", "coordinates": [ 37.15, -0.87 ] } },
{ "type": "Feature", "properties": { "F_NAME": "SABASABA SUB HEALTH CENTRE", "PROV": "CENTRAL", "DIST": "MARAGUA", "DIVISION": "MARAGUA", "LOCATION": "KAHUMBU", "SUB_LOCATI": "KANDANI", "LONG": 37.1361, "LAT": -0.87501, "SPATIAL_RE": "GPS", "F_TYPE": 3, "AGENCY": "MOH" }, "geometry": { "type": "Point", "coordinates": [ 37.1361, -0.87501 ] } },
{ "type": "Feature", "properties": { "F_NAME": "TATA HANAH DISP", "PROV": "CENTRAL", "DIST": "MARAGUA", "DIVISION": "KIGUMO", "LOCATION": "KINYONA", "SUB_LOCATI": "KINYONA", "LONG": 36.892918, "LAT": -0.776771, "SPATIAL_RE": "DHMT", "F_TYPE": 4, "AGENCY": "MISS" }, "geometry": { "type": "Point", "coordinates": [ 36.892918, -0.776771 ] } },
{ "type": "Feature", "properties": { "F_NAME": "GACHARAGENI DISP", "PROV": "CENTRAL", "DIST": "MURANGA", "DIVISION": "MATHIOYA", "LOCATION": "NJUMBI", "SUB_LOCATI": "KIAMUTURI", "LONG": 36.8478, "LAT": -0.61184, "SPATIAL_RE": "DDP", "F_TYPE": 4, "AGENCY": "MOH" }, "geometry": { "type": "Point", "coordinates": [ 36.8478, -0.61184 ] } },
{ "type": "Feature", "properties": { "F_NAME": "GAKURWE DISP", "PROV": "CENTRAL", "DIST": "MURANGA", "DIVISION": "KIHARU", "LOCATION": "GATURI", "SUB_LOCATI": "GATHUKIINI", "LONG": 37.0161, "LAT": -0.627688, "SPATIAL_RE": "1:50000 MAPS", "F_TYPE": 4, "AGENCY": "MOH" }, "geometry": { "type": "Point", "coordinates": [ 37.0161, -0.627688 ] } },
{ "type": "Feature", "properties": { "F_NAME": "GATANGARA DISP", "PROV": "CENTRAL", "DIST": "MURANGA", "DIVISION": "KANGEMA", "LOCATION": "KANYENYAINI", "SUB_LOCATI": "KIBUTHA", "LONG": 36.93, "LAT": -0.7, "SPATIAL_RE": "DHMT", "F_TYPE": 4, "AGENCY": "MOH" }, "geometry": { "type": "Point", "coordinates": [ 36.93, -0.7 ] } },
{ "type": "Feature", "properties": { "F_NAME": "GATARA DISP", "PROV": "CENTRAL", "DIST": "MURANGA", "DIVISION": "KANGEMA", "LOCATION": "KIRURI", "SUB_LOCATI": "ICHICHI", "LONG": 36.86, "LAT": -0.72, "SPATIAL_RE": "DHMT", "F_TYPE": 4, "AGENCY": "MOH" }, "geometry": { "type": "Point", "coordinates": [ 36.86, -0.72 ] } },
{ "type": "Feature", "properties": { "F_NAME": "GATHAITHI DISP", "PROV": "CENTRAL", "DIST": "MURANGA", "DIVISION": "KAHURO", "LOCATION": "MURARANDIA", "SUB_LOCATI": "GATHAITHI(MURANGA)", "LONG": 36.8923, "LAT": -0.740291, "SPATIAL_RE": "DDP", "F_TYPE": 4, "AGENCY": "MOH" }, "geometry": { "type": "Point", "coordinates": [ 36.8923, -0.740291 ] } },
{ "type": "Feature", "properties": { "F_NAME": "GATHERU DISP", "PROV": "CENTRAL", "DIST": "MURANGA", "DIVISION": "KAHURO", "LOCATION": "KAHUHIA", "SUB_LOCATI": "GATHERU", "LONG": 37.0632, "LAT": -0.728944, "SPATIAL_RE": "1:50000 MAPS", "F_TYPE": 4, "AGENCY": "MOH" }, "geometry": { "type": "Point", "coordinates": [ 37.0632, -0.728944 ] } },
{ "type": "Feature", "properties": { "F_NAME": "GATURI DISP", "PROV": "CENTRAL", "DIST": "MURANGA", "DIVISION": "KIHARU", "LOCATION": "GATURI", "SUB_LOCATI": "GEITWA\/MUGEKA", "LONG": 37.10059, "LAT": -0.64613, "SPATIAL_RE": "GPS", "F_TYPE": 4, "AGENCY": "MISS" }, "geometry": { "type": "Point", "coordinates": [ 37.10059, -0.64613 ] } },
{ "type": "Feature", "properties": { "F_NAME": "GIKUI DISP", "PROV": "CENTRAL", "DIST": "MURANGA", "DIVISION": "KANGEMA", "LOCATION": "IYEGO", "SUB_LOCATI": "GIKUI(MURANGA)", "LONG": 37.014, "LAT": -0.676591, "SPATIAL_RE": "1:50000 MAPS", "F_TYPE": 4, "AGENCY": "MOH" }, "geometry": { "type": "Point", "coordinates": [ 37.014, -0.676591 ] } },
{ "type": "Feature", "properties": { "F_NAME": "GITARO DISP", "PROV": "CENTRAL", "DIST": "MURANGA", "DIVISION": "KAHURO", "LOCATION": "MUGOIRI", "SUB_LOCATI": "GATUNDU(MURANGA)", "LONG": 37.07393, "LAT": -0.74295, "SPATIAL_RE": "GPS", "F_TYPE": 4, "AGENCY": "MOH" }, "geometry": { "type": "Point", "coordinates": [ 37.07393, -0.74295 ] } },
{ "type": "Feature", "properties": { "F_NAME": "GITHANGA DISP", "PROV": "CENTRAL", "DIST": "MURANGA", "DIVISION": "KIHARU", "LOCATION": "GATURI", "SUB_LOCATI": "GEITWA\/MUGEKA", "LONG": 37.1018, "LAT": -0.62973, "SPATIAL_RE": "1:50000 MAPS", "F_TYPE": 4, "AGENCY": "MISS" }, "geometry": { "type": "Point", "coordinates": [ 37.1018, -0.62973 ] } },
{ "type": "Feature", "properties": { "F_NAME": "GITUGI DISP", "PROV": "CENTRAL", "DIST": "MURANGA", "DIVISION": "MATHIOYA", "LOCATION": "GITUGI", "SUB_LOCATI": "GITUGI(MURANGA)", "LONG": 37.0255, "LAT": -0.655967, "SPATIAL_RE": "1:50000 MAPS", "F_TYPE": 4, "AGENCY": "MOH" }, "geometry": { "type": "Point", "coordinates": [ 37.0255, -0.655967 ] } },
{ "type": "Feature", "properties": { "F_NAME": "ICHICHI DISP", "PROV": "CENTRAL", "DIST": "MURANGA", "DIVISION": "KANGEMA", "LOCATION": "KIRURI", "SUB_LOCATI": "ICHICHI", "LONG": 36.8387, "LAT": -0.704469, "SPATIAL_RE": "DDP", "F_TYPE": 4, "AGENCY": "MOH" }, "geometry": { "type": "Point", "coordinates": [ 36.8387, -0.704469 ] } },
{ "type": "Feature", "properties": { "F_NAME": "IRURI DISP", "PROV": "CENTRAL", "DIST": "MURANGA", "DIVISION": "MATHIOYA", "LOCATION": "KAMACHARIA", "SUB_LOCATI": "THUITA(MURANGA)", "LONG": 37.028378, "LAT": -0.596847, "SPATIAL_RE": "1:50000 MAPS", "F_TYPE": 4, "AGENCY": "MOH" }, "geometry": { "type": "Point", "coordinates": [ 37.028378, -0.596847 ] } },
{ "type": "Feature", "properties": { "F_NAME": "KAGUMOINI DISP", "PROV": "CENTRAL", "DIST": "MURANGA", "DIVISION": "MATHIOYA", "LOCATION": "KIRU", "SUB_LOCATI": "KAGUMOINI(MURANGA)", "LONG": 36.9821, "LAT": -0.620072, "SPATIAL_RE": "1:50000 MAPS", "F_TYPE": 4, "AGENCY": "MOH" }, "geometry": { "type": "Point", "coordinates": [ 36.9821, -0.620072 ] } },
{ "type": "Feature", "properties": { "F_NAME": "KAHUHIA ACK DISP", "PROV": "CENTRAL", "DIST": "MURANGA", "DIVISION": "KAHURO", "LOCATION": "KAHUHIA", "SUB_LOCATI": "KIROGO", "LONG": 37.04, "LAT": -0.71, "SPATIAL_RE": "DHMT", "F_TYPE": 4, "AGENCY": "MISS" }, "geometry": { "type": "Point", "coordinates": [ 37.04, -0.71 ] } },
{ "type": "Feature", "properties": { "F_NAME": "KAIRO DISP", "PROV": "CENTRAL", "DIST": "MURANGA", "DIVISION": "MATHIOYA", "LOCATION": "KIRU", "SUB_LOCATI": "KAIRO", "LONG": 36.8629, "LAT": -0.610663, "SPATIAL_RE": "1:50000 MAPS", "F_TYPE": 4, "AGENCY": "MOH" }, "geometry": { "type": "Point", "coordinates": [ 36.8629, -0.610663 ] } },
{ "type": "Feature", "properties": { "F_NAME": "KAMBIRWA DISP", "PROV": "CENTRAL", "DIST": "MURANGA", "DIVISION": "KIHARU", "LOCATION": "GIKINDU", "SUB_LOCATI": "KAMBIRWA", "LONG": 37.1921, "LAT": -0.741239, "SPATIAL_RE": "1:50000 MAPS", "F_TYPE": 4, "AGENCY": "MOH" }, "geometry": { "type": "Point", "coordinates": [ 37.1921, -0.741239 ] } },
{ "type": "Feature", "properties": { "F_NAME": "KANGEMA HEALTH CENTRE", "PROV": "CENTRAL", "DIST": "MURANGA", "DIVISION": "KANGEMA", "LOCATION": "MUGURU", "SUB_LOCATI": "GAKIRA", "LONG": 36.97065, "LAT": -0.68709, "SPATIAL_RE": "GPS", "F_TYPE": 3, "AGENCY": "MOH" }, "geometry": { "type": "Point", "coordinates": [ 36.97065, -0.68709 ] } },
{ "type": "Feature", "properties": { "F_NAME": "KANJAMA DISP", "PROV": "CENTRAL", "DIST": "MURANGA", "DIVISION": "MATHIOYA", "LOCATION": "KIRU", "SUB_LOCATI": "KANJAMA", "LONG": 36.9522, "LAT": -0.619082, "SPATIAL_RE": "1:50000 MAPS", "F_TYPE": 4, "AGENCY": "MOH" }, "geometry": { "type": "Point", "coordinates": [ 36.9522, -0.619082 ] } },
{ "type": "Feature", "properties": { "F_NAME": "KANYENYAINI DISP", "PROV": "CENTRAL", "DIST": "MURANGA", "DIVISION": "KANGEMA", "LOCATION": "KANYENYAINI", "SUB_LOCATI": "KANYENYAINI", "LONG": 36.8829, "LAT": -0.686016, "SPATIAL_RE": "DDP", "F_TYPE": 4, "AGENCY": "MOH" }, "geometry": { "type": "Point", "coordinates": [ 36.8829, -0.686016 ] } },
{ "type": "Feature", "properties": { "F_NAME": "KARAHA DISP", "PROV": "CENTRAL", "DIST": "MURANGA", "DIVISION": "KIHARU", "LOCATION": "MBIRI", "SUB_LOCATI": "MUCHUNGUCHA", "LONG": 37.12342, "LAT": -0.751234, "SPATIAL_RE": "DISTRICT ESTIMATES", "F_TYPE": 4, "AGENCY": "MISS" }, "geometry": { "type": "Point", "coordinates": [ 37.12342, -0.751234 ] } },
{ "type": "Feature", "properties": { "F_NAME": "KIAMARA DISP", "PROV": "CENTRAL", "DIST": "MURANGA", "DIVISION": "KANGEMA", "LOCATION": "IYEGO", "SUB_LOCATI": "GACHARAIGU", "LONG": 37.0636, "LAT": -0.697581, "SPATIAL_RE": "1:50000 MAPS", "F_TYPE": 4, "AGENCY": "MOH" }, "geometry": { "type": "Point", "coordinates": [ 37.0636, -0.697581 ] } },
{ "type": "Feature", "properties": { "F_NAME": "KIANGOCHI DISP", "PROV": "CENTRAL", "DIST": "MURANGA", "DIVISION": "KIHARU", "LOCATION": "MBIRI", "SUB_LOCATI": "MUCHUNGUCHA", "LONG": 37.118469, "LAT": -0.760811, "SPATIAL_RE": "1:50000 MAPS", "F_TYPE": 4, "AGENCY": "MOH" }, "geometry": { "type": "Point", "coordinates": [ 37.118469, -0.760811 ] } },
{ "type": "Feature", "properties": { "F_NAME": "KIANGUNYI MISSION DISP", "PROV": "CENTRAL", "DIST": "MURANGA", "DIVISION": "KANGEMA", "LOCATION": "MUGURU", "SUB_LOCATI": "WATUHA", "LONG": 36.98927, "LAT": -0.69231, "SPATIAL_RE": "GPS", "F_TYPE": 4, "AGENCY": "MISS" }, "geometry": { "type": "Point", "coordinates": [ 36.98927, -0.69231 ] } },
{ "type": "Feature", "properties": { "F_NAME": "KIBUTHA DISP", "PROV": "CENTRAL", "DIST": "MURANGA", "DIVISION": "KANGEMA", "LOCATION": "KANYENYAINI", "SUB_LOCATI": "KIBUTHA", "LONG": 36.91892, "LAT": -0.698198, "SPATIAL_RE": "1:50000 MAPS", "F_TYPE": 4, "AGENCY": "MOH" }, "geometry": { "type": "Point", "coordinates": [ 36.91892, -0.698198 ] } },
{ "type": "Feature", "properties": { "F_NAME": "KIGETUINI DISP", "PROV": "CENTRAL", "DIST": "MURANGA", "DIVISION": "KIHARU", "LOCATION": "GATURI", "SUB_LOCATI": "KIMATHI(MURANGA)", "LONG": 37.162341, "LAT": -0.673212, "SPATIAL_RE": "1:50000 MAPS", "F_TYPE": 4, "AGENCY": "MOH" }, "geometry": { "type": "Point", "coordinates": [ 37.162341, -0.673212 ] } },
{ "type": "Feature", "properties": { "F_NAME": "KIHOYA DISP", "PROV": "CENTRAL", "DIST": "MURANGA", "DIVISION": "MATHIOYA", "LOCATION": "RWATHIA", "SUB_LOCATI": "KIHOYA", "LONG": 36.88874, "LAT": -0.648649, "SPATIAL_RE": "1:50000 MAPS", "F_TYPE": 4, "AGENCY": "MOH" }, "geometry": { "type": "Point", "coordinates": [ 36.88874, -0.648649 ] } },
{ "type": "Feature", "properties": { "F_NAME": "KIHURO ACK DISP", "PROV": "CENTRAL", "DIST": "MURANGA", "DIVISION": "MATHIOYA", "LOCATION": "KIRU", "SUB_LOCATI": "KAGUMOINI(MURANGA)", "LONG": 36.97, "LAT": -0.61, "SPATIAL_RE": "DHMT", "F_TYPE": 4, "AGENCY": "MISS" }, "geometry": { "type": "Point", "coordinates": [ 36.97, -0.61 ] } },
{ "type": "Feature", "properties": { "F_NAME": "KIRIA DISP", "PROV": "CENTRAL", "DIST": "MURANGA", "DIVISION": "KAHURO", "LOCATION": "MUGOIRI", "SUB_LOCATI": "KIRIA(MURANGA)", "LONG": 37.0672, "LAT": -0.767812, "SPATIAL_RE": "1:50000 MAPS", "F_TYPE": 4, "AGENCY": "MOH" }, "geometry": { "type": "Point", "coordinates": [ 37.0672, -0.767812 ] } },
{ "type": "Feature", "properties": { "F_NAME": "KIRIAINI DISP", "PROV": "CENTRAL", "DIST": "MURANGA", "DIVISION": "MATHIOYA", "LOCATION": "KIRU", "SUB_LOCATI": "KIRIAINI(MURANGA)", "LONG": 36.95155, "LAT": -0.59941, "SPATIAL_RE": "GPS", "F_TYPE": 4, "AGENCY": "MOH" }, "geometry": { "type": "Point", "coordinates": [ 36.95155, -0.59941 ] } },
{ "type": "Feature", "properties": { "F_NAME": "KIRIAINI MISS. HOSPITAL", "PROV": "CENTRAL", "DIST": "MURANGA", "DIVISION": "MATHIOYA", "LOCATION": "KIRU", "SUB_LOCATI": "KIRIAINI(MURANGA)", "LONG": 36.9482, "LAT": -0.597467, "SPATIAL_RE": "DDP", "F_TYPE": 1, "AGENCY": "MISS" }, "geometry": { "type": "Point", "coordinates": [ 36.9482, -0.597467 ] } },
{ "type": "Feature", "properties": { "F_NAME": "KIROGO HEALTH CENTRE", "PROV": "CENTRAL", "DIST": "MURANGA", "DIVISION": "KAHURO", "LOCATION": "KAHUHIA", "SUB_LOCATI": "KIROGO", "LONG": 37.02947, "LAT": -0.71178, "SPATIAL_RE": "GPS", "F_TYPE": 3, "AGENCY": "MOH" }, "geometry": { "type": "Point", "coordinates": [ 37.02947, -0.71178 ] } },
{ "type": "Feature", "properties": { "F_NAME": "MIHUTI DISP", "PROV": "CENTRAL", "DIST": "MURANGA", "DIVISION": "MATHIOYA", "LOCATION": "GITUGI", "SUB_LOCATI": "MIHUTI(MURANGA)", "LONG": 36.96, "LAT": -0.66, "SPATIAL_RE": "DHMT", "F_TYPE": 4, "AGENCY": "MISS" }, "geometry": { "type": "Point", "coordinates": [ 36.96, -0.66 ] } },
{ "type": "Feature", "properties": { "F_NAME": "MUGEKA HEALTH CENTRE", "PROV": "CENTRAL", "DIST": "MURANGA", "DIVISION": "KIHARU", "LOCATION": "GATURI", "SUB_LOCATI": "GEITWA\/MUGEKA", "LONG": 37.09145, "LAT": -0.63969, "SPATIAL_RE": "GPS", "F_TYPE": 3, "AGENCY": "MOH" }, "geometry": { "type": "Point", "coordinates": [ 37.09145, -0.63969 ] } },
{ "type": "Feature", "properties": { "F_NAME": "MUGOIRI  MISSION DISP", "PROV": "CENTRAL", "DIST": "MURANGA", "DIVISION": "KAHURO", "LOCATION": "MUGOIRI", "SUB_LOCATI": "KAHURO", "LONG": 37.02561, "LAT": -0.74839, "SPATIAL_RE": "GPS", "F_TYPE": 4, "AGENCY": "MISS" }, "geometry": { "type": "Point", "coordinates": [ 37.02561, -0.74839 ] } },
{ "type": "Feature", "properties": { "F_NAME": "MURANGA DISTRICT HOSPITAL", "PROV": "CENTRAL", "DIST": "MURANGA", "DIVISION": "KIHARU", "LOCATION": "TOWNSHIP", "SUB_LOCATI": "KARURI(MURANGA)", "LONG": 37.15985, "LAT": -0.71587, "SPATIAL_RE": "GPS", "F_TYPE": 1, "AGENCY": "MOH" }, "geometry": { "type": "Point", "coordinates": [ 37.15985, -0.71587 ] } },
{ "type": "Feature", "properties": { "F_NAME": "MURARANDIA DISP", "PROV": "CENTRAL", "DIST": "MURANGA", "DIVISION": "KAHURO", "LOCATION": "MURARANDIA", "SUB_LOCATI": "MURARANDIA", "LONG": 36.8958, "LAT": -0.718632, "SPATIAL_RE": "1:50000 MAPS", "F_TYPE": 4, "AGENCY": "MOH" }, "geometry": { "type": "Point", "coordinates": [ 36.8958, -0.718632 ] } },
{ "type": "Feature", "properties": { "F_NAME": "MURIRANJAS SUB-DISTRICT HOSP.", "PROV": "CENTRAL", "DIST": "MURANGA", "DIVISION": "KAHURO", "LOCATION": "MUGOIRI", "SUB_LOCATI": "KAHURO", "LONG": 36.97306, "LAT": -0.74315, "SPATIAL_RE": "GPS", "F_TYPE": 1, "AGENCY": "MOH" }, "geometry": { "type": "Point", "coordinates": [ 36.97306, -0.74315 ] } },
{ "type": "Feature", "properties": { "F_NAME": "NYAKIANGA DISP", "PROV": "CENTRAL", "DIST": "MURANGA", "DIVISION": "MATHIOYA", "LOCATION": "NJUMBI", "SUB_LOCATI": "NJUMBI", "LONG": 36.95746, "LAT": -0.63943, "SPATIAL_RE": "GPS", "F_TYPE": 4, "AGENCY": "MOH" }, "geometry": { "type": "Point", "coordinates": [ 36.95746, -0.63943 ] } },
{ "type": "Feature", "properties": { "F_NAME": "RWATHIA DISP", "PROV": "CENTRAL", "DIST": "MURANGA", "DIVISION": "MATHIOYA", "LOCATION": "RWATHIA", "SUB_LOCATI": "RWATHIA", "LONG": 36.9328, "LAT": -0.659602, "SPATIAL_RE": "DDP", "F_TYPE": 4, "AGENCY": "MOH" }, "geometry": { "type": "Point", "coordinates": [ 36.9328, -0.659602 ] } },
{ "type": "Feature", "properties": { "F_NAME": "TUTHU SUB HEALTH CENTRE", "PROV": "CENTRAL", "DIST": "MURANGA", "DIVISION": "KANGEMA", "LOCATION": "KIRURI", "SUB_LOCATI": "TUTHU", "LONG": 36.831081, "LAT": -0.6667, "SPATIAL_RE": "1:50000 MAPS", "F_TYPE": 3, "AGENCY": "MOH" }, "geometry": { "type": "Point", "coordinates": [ 36.831081, -0.6667 ] } },
{ "type": "Feature", "properties": { "F_NAME": "WAHUNDURA DISP", "PROV": "CENTRAL", "DIST": "MURANGA", "DIVISION": "MATHIOYA", "LOCATION": "KAMACHARIA", "SUB_LOCATI": "KAMUNE", "LONG": 36.98123, "LAT": -0.591234, "SPATIAL_RE": "DISTRICT ESTIMATES", "F_TYPE": 4, "AGENCY": "MOH" }, "geometry": { "type": "Point", "coordinates": [ 36.98123, -0.591234 ] } },
{ "type": "Feature", "properties": { "F_NAME": "WANJENGI DISP", "PROV": "CENTRAL", "DIST": "MURANGA", "DIVISION": "KAHURO", "LOCATION": "WEITHAGA", "SUB_LOCATI": "WANJENGI", "LONG": 37.0117, "LAT": -0.724185, "SPATIAL_RE": "1:50000 MAPS", "F_TYPE": 4, "AGENCY": "MOH" }, "geometry": { "type": "Point", "coordinates": [ 37.0117, -0.724185 ] } },
{ "type": "Feature", "properties": { "F_NAME": "WANJERERE DISP", "PROV": "CENTRAL", "DIST": "MURANGA", "DIVISION": "MATHIOYA", "LOCATION": "RWATHIA", "SUB_LOCATI": "WANJERERE", "LONG": 36.84123, "LAT": -0.651234, "SPATIAL_RE": "1:50000 MAPS", "F_TYPE": 4, "AGENCY": "MOH" }, "geometry": { "type": "Point", "coordinates": [ 36.84123, -0.651234 ] } },
{ "type": "Feature", "properties": { "F_NAME": "WEITHAGA DISP", "PROV": "CENTRAL", "DIST": "MURANGA", "DIVISION": "KAHURO", "LOCATION": "WEITHAGA", "SUB_LOCATI": "KAHUTI", "LONG": 36.97671, "LAT": -0.71253, "SPATIAL_RE": "GPS", "F_TYPE": 4, "AGENCY": "MISS" }, "geometry": { "type": "Point", "coordinates": [ 36.97671, -0.71253 ] } },
{ "type": "Feature", "properties": { "F_NAME": "AIC MUKEU DISP", "PROV": "CENTRAL", "DIST": "NYANDARUA", "DIVISION": "SOUTH KINANGOP", "LOCATION": "NYAKIO", "SUB_LOCATI": "MUKEU(NYANDA)", "LONG": 36.627174, "LAT": -0.767321, "SPATIAL_RE": "SUBLOC CENTROID", "F_TYPE": 4, "AGENCY": "MISS" }, "geometry": { "type": "Point", "coordinates": [ 36.627174, -0.767321 ] } },
{ "type": "Feature", "properties": { "F_NAME": "BAARI DISP", "PROV": "CENTRAL", "DIST": "NYANDARUA", "DIVISION": "NDARAGWA", "LOCATION": "LESHAU", "SUB_LOCATI": "KARAGOINI", "LONG": 36.4433, "LAT": -0.002742, "SPATIAL_RE": "DDP", "F_TYPE": 4, "AGENCY": "MOH" }, "geometry": { "type": "Point", "coordinates": [ 36.4433, -0.002742 ] } },
{ "type": "Feature", "properties": { "F_NAME": "BAMBOO DISP", "PROV": "CENTRAL", "DIST": "NYANDARUA", "DIVISION": "SOUTH KINANGOP", "LOCATION": "MAGUMU", "SUB_LOCATI": "MATURA(S. KINANGOP)", "LONG": 36.5714, "LAT": -0.833952, "SPATIAL_RE": "DDP", "F_TYPE": 4, "AGENCY": "MOH" }, "geometry": { "type": "Point", "coordinates": [ 36.5714, -0.833952 ] } },
{ "type": "Feature", "properties": { "F_NAME": "ENGINEER HEALTH CENTRE", "PROV": "CENTRAL", "DIST": "NYANDARUA", "DIVISION": "NORTH KINANGOP", "LOCATION": "ENGINEER", "SUB_LOCATI": "GATHARA", "LONG": 36.5919, "LAT": -0.610526, "SPATIAL_RE": "DDP", "F_TYPE": 3, "AGENCY": "MOH" }, "geometry": { "type": "Point", "coordinates": [ 36.5919, -0.610526 ] } },
{ "type": "Feature", "properties": { "F_NAME": "GETA BUSH DISP", "PROV": "CENTRAL", "DIST": "NYANDARUA", "DIVISION": "KIPIPIRI", "LOCATION": "WANJOHI", "SUB_LOCATI": "WANJOHI", "LONG": 36.5604, "LAT": -0.35786, "SPATIAL_RE": "DDP", "F_TYPE": 4, "AGENCY": "MOH" }, "geometry": { "type": "Point", "coordinates": [ 36.5604, -0.35786 ] } },
{ "type": "Feature", "properties": { "F_NAME": "GETA FOREST DISP", "PROV": "CENTRAL", "DIST": "NYANDARUA", "DIVISION": "NORTH KINANGOP", "LOCATION": "NORTH KINANGOP", "SUB_LOCATI": "NANDARASI", "LONG": 36.628, "LAT": -0.486639, "SPATIAL_RE": "DDP", "F_TYPE": 4, "AGENCY": "MOH" }, "geometry": { "type": "Point", "coordinates": [ 36.628, -0.486639 ] } },
{ "type": "Feature", "properties": { "F_NAME": "HENI DISP", "PROV": "CENTRAL", "DIST": "NYANDARUA", "DIVISION": "SOUTH KINANGOP", "LOCATION": "MAGUMU", "SUB_LOCATI": "KARATI(NYANDARUA)", "LONG": 36.5669, "LAT": -0.801432, "SPATIAL_RE": "DDP", "F_TYPE": 4, "AGENCY": "MOH" }, "geometry": { "type": "Point", "coordinates": [ 36.5669, -0.801432 ] } },
{ "type": "Feature", "properties": { "F_NAME": "HOLY FAMILY CATHOLIC DISP", "PROV": "CENTRAL", "DIST": "NYANDARUA", "DIVISION": "NDARAGWA", "LOCATION": "KAHUTHA", "SUB_LOCATI": "MURICHO", "LONG": 36.5467, "LAT": -0.030709, "SPATIAL_RE": "DDP", "F_TYPE": 4, "AGENCY": "MISS" }, "geometry": { "type": "Point", "coordinates": [ 36.5467, -0.030709 ] } },
{ "type": "Feature", "properties": { "F_NAME": "KAHEMBE DISP", "PROV": "CENTRAL", "DIST": "NYANDARUA", "DIVISION": "NDARAGWA", "LOCATION": "MATHINGIRA", "SUB_LOCATI": "NDIVAI", "LONG": 36.4771, "LAT": 0.039534, "SPATIAL_RE": "DDP", "F_TYPE": 4, "AGENCY": "MOH" }, "geometry": { "type": "Point", "coordinates": [ 36.4771, 0.039534 ] } },
{ "type": "Feature", "properties": { "F_NAME": "KAIMBAGA DISP", "PROV": "CENTRAL", "DIST": "NYANDARUA", "DIVISION": "OL KALOU", "LOCATION": "RURII", "SUB_LOCATI": "RURII", "LONG": 36.419674, "LAT": -0.210357, "SPATIAL_RE": "DHMT", "F_TYPE": 4, "AGENCY": "MOH" }, "geometry": { "type": "Point", "coordinates": [ 36.419674, -0.210357 ] } },
{ "type": "Feature", "properties": { "F_NAME": "KARANGATHA HEALTH CENTRE", "PROV": "CENTRAL", "DIST": "NYANDARUA", "DIVISION": "SOUTH KINANGOP", "LOCATION": "NYAKIO", "SUB_LOCATI": "KARANGATHA", "LONG": 36.6182, "LAT": -0.78127, "SPATIAL_RE": "DDP", "F_TYPE": 3, "AGENCY": "MOH" }, "geometry": { "type": "Point", "coordinates": [ 36.6182, -0.78127 ] } },
{ "type": "Feature", "properties": { "F_NAME": "KENTON GITWE DISP", "PROV": "CENTRAL", "DIST": "NYANDARUA", "DIVISION": "SOUTH KINANGOP", "LOCATION": "MAGUMU", "SUB_LOCATI": "GITWE(NYANDARUA)", "LONG": 36.5649, "LAT": -0.882732, "SPATIAL_RE": "DDP", "F_TYPE": 4, "AGENCY": "MOH" }, "geometry": { "type": "Point", "coordinates": [ 36.5649, -0.882732 ] } },
{ "type": "Feature", "properties": { "F_NAME": "KIHINGO CATHOLIC DISP", "PROV": "CENTRAL", "DIST": "NYANDARUA", "DIVISION": "KIPIPIRI", "LOCATION": "GETA", "SUB_LOCATI": "MAKUMBI", "LONG": 36.569856, "LAT": -0.421866, "SPATIAL_RE": "ILRI MKT CENTRES", "F_TYPE": 4, "AGENCY": "MISS" }, "geometry": { "type": "Point", "coordinates": [ 36.569856, -0.421866 ] } },
{ "type": "Feature", "properties": { "F_NAME": "KIRIMA DISP", "PROV": "CENTRAL", "DIST": "NYANDARUA", "DIVISION": "NDARAGWA", "LOCATION": "SHAMATA", "SUB_LOCATI": "KIRIMA(NYANDARUA)", "LONG": 36.4765, "LAT": -0.186805, "SPATIAL_RE": "DDP", "F_TYPE": 4, "AGENCY": "MOH" }, "geometry": { "type": "Point", "coordinates": [ 36.4765, -0.186805 ] } },
{ "type": "Feature", "properties": { "F_NAME": "LESHAU PONDO HEALTH CENTRE", "PROV": "CENTRAL", "DIST": "NYANDARUA", "DIVISION": "OL JORO OROK", "LOCATION": "WERU", "SUB_LOCATI": "GATUMBIRO(NYAND)", "LONG": 36.421123, "LAT": -0.092321, "SPATIAL_RE": "1:50000 MAPS", "F_TYPE": 3, "AGENCY": "MOH" }, "geometry": { "type": "Point", "coordinates": [ 36.421123, -0.092321 ] } },
{ "type": "Feature", "properties": { "F_NAME": "MAINA & MWANGI HEALTH CENTRE", "PROV": "CENTRAL", "DIST": "NYANDARUA", "DIVISION": "OL JORO OROK", "LOCATION": "OL JORO OROK", "SUB_LOCATI": "NYAIROKO", "LONG": 36.3269, "LAT": -0.144529, "SPATIAL_RE": "DDP", "F_TYPE": 3, "AGENCY": "MOH" }, "geometry": { "type": "Point", "coordinates": [ 36.3269, -0.144529 ] } },
{ "type": "Feature", "properties": { "F_NAME": "MAINA VILLAGE DISP", "PROV": "CENTRAL", "DIST": "NYANDARUA", "DIVISION": "NDARAGWA", "LOCATION": "KIRIITA", "SUB_LOCATI": "SHAURI", "LONG": 36.432321, "LAT": 0.062321, "SPATIAL_RE": "1:50000 MAPS", "F_TYPE": 4, "AGENCY": "MOH" }, "geometry": { "type": "Point", "coordinates": [ 36.432321, 0.062321 ] } },
{ "type": "Feature", "properties": { "F_NAME": "MANUNGA DISP", "PROV": "CENTRAL", "DIST": "NYANDARUA", "DIVISION": "KIPIPIRI", "LOCATION": "WANJOHI", "SUB_LOCATI": "WANJOHI", "LONG": 36.4953, "LAT": -0.35786, "SPATIAL_RE": "DDP", "F_TYPE": 4, "AGENCY": "MOH" }, "geometry": { "type": "Point", "coordinates": [ 36.4953, -0.35786 ] } },
{ "type": "Feature", "properties": { "F_NAME": "MAWINGU DISP", "PROV": "CENTRAL", "DIST": "NYANDARUA", "DIVISION": "OL KALOU", "LOCATION": "OL KALOU", "SUB_LOCATI": "MAWINGO(NYANDA)", "LONG": 36.3223, "LAT": -0.34225, "SPATIAL_RE": "DDP", "F_TYPE": 4, "AGENCY": "MOH" }, "geometry": { "type": "Point", "coordinates": [ 36.3223, -0.34225 ] } },
{ "type": "Feature", "properties": { "F_NAME": "MIRANGINE HEALTH CENTRE", "PROV": "CENTRAL", "DIST": "NYANDARUA", "DIVISION": "OL KALOU", "LOCATION": "NDUNDORI", "SUB_LOCATI": "MELANGINE", "LONG": 36.254, "LAT": -0.206317, "SPATIAL_RE": "DDP", "F_TYPE": 3, "AGENCY": "MOH" }, "geometry": { "type": "Point", "coordinates": [ 36.254, -0.206317 ] } },
{ "type": "Feature", "properties": { "F_NAME": "MURUNGARU DISP", "PROV": "CENTRAL", "DIST": "NYANDARUA", "DIVISION": "NORTH KINANGOP", "LOCATION": "ENGINEER", "SUB_LOCATI": "MURUNGARU", "LONG": 36.4882, "LAT": -0.605662, "SPATIAL_RE": "DDP", "F_TYPE": 4, "AGENCY": "MOH" }, "geometry": { "type": "Point", "coordinates": [ 36.4882, -0.605662 ] } },
{ "type": "Feature", "properties": { "F_NAME": "MUTARAKWA DISP", "PROV": "CENTRAL", "DIST": "NYANDARUA", "DIVISION": "NORTH KINANGOP", "LOCATION": "NORTH KINANGOP", "SUB_LOCATI": "KINJA", "LONG": 36.6279, "LAT": -0.565601, "SPATIAL_RE": "DDP", "F_TYPE": 4, "AGENCY": "MOH" }, "geometry": { "type": "Point", "coordinates": [ 36.6279, -0.565601 ] } },
{ "type": "Feature", "properties": { "F_NAME": "NANDARASI DISP", "PROV": "CENTRAL", "DIST": "NYANDARUA", "DIVISION": "NORTH KINANGOP", "LOCATION": "NORTH KINANGOP", "SUB_LOCATI": "KITIRI", "LONG": 36.61817, "LAT": -0.525748, "SPATIAL_RE": "DHMT", "F_TYPE": 4, "AGENCY": "MOH" }, "geometry": { "type": "Point", "coordinates": [ 36.61817, -0.525748 ] } },
{ "type": "Feature", "properties": { "F_NAME": "NDARAGWA HEALTH CENTRE", "PROV": "CENTRAL", "DIST": "NYANDARUA", "DIVISION": "NDARAGWA", "LOCATION": "KAHUTHA", "SUB_LOCATI": "MURICHO", "LONG": 36.5441, "LAT": -0.040465, "SPATIAL_RE": "DDP", "F_TYPE": 3, "AGENCY": "MOH" }, "geometry": { "type": "Point", "coordinates": [ 36.5441, -0.040465 ] } },
{ "type": "Feature", "properties": { "F_NAME": "NDEMI DISP", "PROV": "CENTRAL", "DIST": "NYANDARUA", "DIVISION": "KIPIPIRI", "LOCATION": "MALEWA", "SUB_LOCATI": "NDEMI", "LONG": 36.4413, "LAT": -0.338998, "SPATIAL_RE": "DDP", "F_TYPE": 4, "AGENCY": "MOH" }, "geometry": { "type": "Point", "coordinates": [ 36.4413, -0.338998 ] } },
{ "type": "Feature", "properties": { "F_NAME": "NEW MAWINGO DISP", "PROV": "CENTRAL", "DIST": "NYANDARUA", "DIVISION": "OL KALOU", "LOCATION": "OL KALOU", "SUB_LOCATI": "MAWINGO(NYANDA)", "LONG": 36.332321, "LAT": -0.312321, "SPATIAL_RE": "1:50000 MAPS", "F_TYPE": 4, "AGENCY": "MOH" }, "geometry": { "type": "Point", "coordinates": [ 36.332321, -0.312321 ] } },
{ "type": "Feature", "properties": { "F_NAME": "NEW TUMAINI DISP", "PROV": "CENTRAL", "DIST": "NYANDARUA", "DIVISION": "OL KALOU", "LOCATION": "TUMAINI", "SUB_LOCATI": "KANJUIRI", "LONG": 36.292321, "LAT": -0.342321, "SPATIAL_RE": "1:50000 MAPS", "F_TYPE": 4, "AGENCY": "MOH" }, "geometry": { "type": "Point", "coordinates": [ 36.292321, -0.342321 ] } },
{ "type": "Feature", "properties": { "F_NAME": "NGANO H C", "PROV": "CENTRAL", "DIST": "NYANDARUA", "DIVISION": "OL JORO OROK", "LOCATION": "GATANJE", "SUB_LOCATI": "NGANO", "LONG": 36.2833, "LAT": -0.095749, "SPATIAL_RE": "DDP", "F_TYPE": 3, "AGENCY": "MOH" }, "geometry": { "type": "Point", "coordinates": [ 36.2833, -0.095749 ] } },
{ "type": "Feature", "properties": { "F_NAME": "NGORIKA DISP", "PROV": "CENTRAL", "DIST": "NYANDARUA", "DIVISION": "OL KALOU", "LOCATION": "NGORIKA", "SUB_LOCATI": "NGORIKA", "LONG": 36.23, "LAT": -0.313633, "SPATIAL_RE": "DDP", "F_TYPE": 4, "AGENCY": "MOH" }, "geometry": { "type": "Point", "coordinates": [ 36.23, -0.313633 ] } },
{ "type": "Feature", "properties": { "F_NAME": "NJABINI CATHOLIC DISP", "PROV": "CENTRAL", "DIST": "NYANDARUA", "DIVISION": "SOUTH KINANGOP", "LOCATION": "NJABINI", "SUB_LOCATI": "KIBURU", "LONG": 36.669, "LAT": -0.734441, "SPATIAL_RE": "DDP", "F_TYPE": 4, "AGENCY": "MISS" }, "geometry": { "type": "Point", "coordinates": [ 36.669, -0.734441 ] } },
{ "type": "Feature", "properties": { "F_NAME": "NJABINI HEALTH CENTRE", "PROV": "CENTRAL", "DIST": "NYANDARUA", "DIVISION": "SOUTH KINANGOP", "LOCATION": "NJABINI", "SUB_LOCATI": "KIBURU", "LONG": 36.6657, "LAT": -0.721433, "SPATIAL_RE": "DDP", "F_TYPE": 3, "AGENCY": "MOH" }, "geometry": { "type": "Point", "coordinates": [ 36.6657, -0.721433 ] } },
{ "type": "Feature", "properties": { "F_NAME": "NORTH KINANGOP CATHOLIC HOSPITAL", "PROV": "CENTRAL", "DIST": "NYANDARUA", "DIVISION": "NORTH KINANGOP", "LOCATION": "ENGINEER", "SUB_LOCATI": "GATHARA", "LONG": 36.5833, "LAT": -0.5992, "SPATIAL_RE": "HD MAPS", "F_TYPE": 1, "AGENCY": "MISS" }, "geometry": { "type": "Point", "coordinates": [ 36.5833, -0.5992 ] } },
{ "type": "Feature", "properties": { "F_NAME": "NYAHURURU CATHOLIC MISSION DISP", "PROV": "CENTRAL", "DIST": "NYANDARUA", "DIVISION": "OL JORO OROK", "LOCATION": "GATIMU", "SUB_LOCATI": "GIKINGI", "LONG": 36.359734, "LAT": 0.013654, "SPATIAL_RE": "ILRI MKT CENTRES", "F_TYPE": 4, "AGENCY": "MISS" }, "geometry": { "type": "Point", "coordinates": [ 36.359734, 0.013654 ] } },
{ "type": "Feature", "properties": { "F_NAME": "NYAHURURU DISTRICT HOSPITAL", "PROV": "CENTRAL", "DIST": "NYANDARUA", "DIVISION": "OL JORO OROK", "LOCATION": "GATIMU", "SUB_LOCATI": "GIKINGI", "LONG": 36.3418, "LAT": 0.023274, "SPATIAL_RE": "DDP", "F_TYPE": 1, "AGENCY": "MOH" }, "geometry": { "type": "Point", "coordinates": [ 36.3418, 0.023274 ] } },
{ "type": "Feature", "properties": { "F_NAME": "NYS TUMAINI DISP", "PROV": "CENTRAL", "DIST": "NYANDARUA", "DIVISION": "OL KALOU", "LOCATION": "TUMAINI", "SUB_LOCATI": "KANJUIRI", "LONG": 36.269, "LAT": -0.283714, "SPATIAL_RE": "DDP", "F_TYPE": 4, "AGENCY": "MOH" }, "geometry": { "type": "Point", "coordinates": [ 36.269, -0.283714 ] } },
{ "type": "Feature", "properties": { "F_NAME": "OL JORO OROK CATHOLIC DISP", "PROV": "CENTRAL", "DIST": "NYANDARUA", "DIVISION": "OL JORO OROK", "LOCATION": "OL JORO OROK", "SUB_LOCATI": "LESIRKO", "LONG": 36.3535, "LAT": -0.099001, "SPATIAL_RE": "DDP", "F_TYPE": 4, "AGENCY": "MISS" }, "geometry": { "type": "Point", "coordinates": [ 36.3535, -0.099001 ] } },
{ "type": "Feature", "properties": { "F_NAME": "OL'BOROSAT DISP", "PROV": "CENTRAL", "DIST": "NYANDARUA", "DIVISION": "OL JORO OROK", "LOCATION": "GATANJE", "SUB_LOCATI": "GATHANJE", "LONG": 36.3483, "LAT": -0.046969, "SPATIAL_RE": "DDP", "F_TYPE": 4, "AGENCY": "MOH" }, "geometry": { "type": "Point", "coordinates": [ 36.3483, -0.046969 ] } },
{ "type": "Feature", "properties": { "F_NAME": "OLD MAWINGO DISP", "PROV": "CENTRAL", "DIST": "NYANDARUA", "DIVISION": "KIPIPIRI", "LOCATION": "KIPIPIRI", "SUB_LOCATI": "MIHARATI", "LONG": 36.5213, "LAT": -0.405989, "SPATIAL_RE": "DDP", "F_TYPE": 4, "AGENCY": "MOH" }, "geometry": { "type": "Point", "coordinates": [ 36.5213, -0.405989 ] } },
{ "type": "Feature", "properties": { "F_NAME": "OL'KALOU DISTRICT HOSPITAL", "PROV": "CENTRAL", "DIST": "NYANDARUA", "DIVISION": "OL KALOU", "LOCATION": "OL KALOU", "SUB_LOCATI": "MUNYEKI", "LONG": 36.3735, "LAT": -0.2707, "SPATIAL_RE": "HD MAPS", "F_TYPE": 1, "AGENCY": "MOH" }, "geometry": { "type": "Point", "coordinates": [ 36.3735, -0.2707 ] } },
{ "type": "Feature", "properties": { "F_NAME": "PASSENGA CATHOLIC DISP", "PROV": "CENTRAL", "DIST": "NYANDARUA", "DIVISION": "OL KALOU", "LOCATION": "RURII", "SUB_LOCATI": "PASSENGA", "LONG": 36.32708, "LAT": -0.219369, "SPATIAL_RE": "SUBLOC CENTROID", "F_TYPE": 4, "AGENCY": "MISS" }, "geometry": { "type": "Point", "coordinates": [ 36.32708, -0.219369 ] } },
{ "type": "Feature", "properties": { "F_NAME": "PESI DISP", "PROV": "CENTRAL", "DIST": "NYANDARUA", "DIVISION": "NDARAGWA", "LOCATION": "SHAMATA", "SUB_LOCATI": "PESI(NYANDARUA)", "LONG": 36.5792, "LAT": -0.123716, "SPATIAL_RE": "DDP", "F_TYPE": 4, "AGENCY": "MOH" }, "geometry": { "type": "Point", "coordinates": [ 36.5792, -0.123716 ] } },
{ "type": "Feature", "properties": { "F_NAME": "SHAMATA DISP", "PROV": "CENTRAL", "DIST": "NYANDARUA", "DIVISION": "NATIONAL PARK", "LOCATION": "NATIONAL PARK", "SUB_LOCATI": "MT. KENYA N. PARK", "LONG": 36.5649, "LAT": -0.248593, "SPATIAL_RE": "DDP", "F_TYPE": 4, "AGENCY": "MOH" }, "geometry": { "type": "Point", "coordinates": [ 36.5649, -0.248593 ] } },
{ "type": "Feature", "properties": { "F_NAME": "SILIBWET DISP", "PROV": "CENTRAL", "DIST": "NYANDARUA", "DIVISION": "OL JORO OROK", "LOCATION": "GATANJE", "SUB_LOCATI": "SILIBWET(NYANDA)", "LONG": 36.2833, "LAT": -0.043717, "SPATIAL_RE": "DDP", "F_TYPE": 4, "AGENCY": "MOH" }, "geometry": { "type": "Point", "coordinates": [ 36.2833, -0.043717 ] } },
{ "type": "Feature", "properties": { "F_NAME": "ST MATTHEWS AND SARAH CATHOLIC D", "PROV": "CENTRAL", "DIST": "NYANDARUA", "DIVISION": "OL KALOU", "LOCATION": "NDUNDORI", "SUB_LOCATI": "MELANGINE", "LONG": 36.250195, "LAT": -0.217278, "SPATIAL_RE": "SUBLOC CENTROID", "F_TYPE": 4, "AGENCY": "MISS" }, "geometry": { "type": "Point", "coordinates": [ 36.250195, -0.217278 ] } },
{ "type": "Feature", "properties": { "F_NAME": "ST. MARY'S DISP", "PROV": "CENTRAL", "DIST": "NYANDARUA", "DIVISION": "OL KALOU", "LOCATION": "NGORIKA", "SUB_LOCATI": "NGORIKA", "LONG": 36.239229, "LAT": -0.303998, "SPATIAL_RE": "DHMT", "F_TYPE": 4, "AGENCY": "MISS" }, "geometry": { "type": "Point", "coordinates": [ 36.239229, -0.303998 ] } },
{ "type": "Feature", "properties": { "F_NAME": "SUBUKU DISP", "PROV": "CENTRAL", "DIST": "NYANDARUA", "DIVISION": "NDARAGWA", "LOCATION": "KANYAGIA", "SUB_LOCATI": "KANYAGIA", "LONG": 36.4621, "LAT": -0.0977, "SPATIAL_RE": "DDP", "F_TYPE": 4, "AGENCY": "MOH" }, "geometry": { "type": "Point", "coordinates": [ 36.4621, -0.0977 ] } },
{ "type": "Feature", "properties": { "F_NAME": "TUMAINI DISP", "PROV": "CENTRAL", "DIST": "NYANDARUA", "DIVISION": "OL KALOU", "LOCATION": "TUMAINI", "SUB_LOCATI": "KANJUIRI", "LONG": 36.2638, "LAT": -0.271357, "SPATIAL_RE": "DDP", "F_TYPE": 4, "AGENCY": "MOH" }, "geometry": { "type": "Point", "coordinates": [ 36.2638, -0.271357 ] } },
{ "type": "Feature", "properties": { "F_NAME": "TURASHA DISP", "PROV": "CENTRAL", "DIST": "NYANDARUA", "DIVISION": "KIPIPIRI", "LOCATION": "LERESHWA", "SUB_LOCATI": "KIRIKO(NYANDARUA)", "LONG": 36.4426, "LAT": -0.447615, "SPATIAL_RE": "DDP", "F_TYPE": 4, "AGENCY": "MOH" }, "geometry": { "type": "Point", "coordinates": [ 36.4426, -0.447615 ] } },
{ "type": "Feature", "properties": { "F_NAME": "URUKU DISP", "PROV": "CENTRAL", "DIST": "NYANDARUA", "DIVISION": "NDARAGWA", "LOCATION": "KAHUTHA", "SUB_LOCATI": "URUKU(NYANDARUA)", "LONG": 36.5779, "LAT": 0.03238, "SPATIAL_RE": "DDP", "F_TYPE": 4, "AGENCY": "MOH" }, "geometry": { "type": "Point", "coordinates": [ 36.5779, 0.03238 ] } },
{ "type": "Feature", "properties": { "F_NAME": "WANJOHI HEALTH CENTRE", "PROV": "CENTRAL", "DIST": "NYANDARUA", "DIVISION": "KIPIPIRI", "LOCATION": "WANJOHI", "SUB_LOCATI": "GATONDO", "LONG": 36.5122, "LAT": -0.307129, "SPATIAL_RE": "DDP", "F_TYPE": 3, "AGENCY": "MOH" }, "geometry": { "type": "Point", "coordinates": [ 36.5122, -0.307129 ] } },
{ "type": "Feature", "properties": { "F_NAME": "WERU DISP", "PROV": "CENTRAL", "DIST": "NYANDARUA", "DIVISION": "SOUTH KINANGOP", "LOCATION": "NJABINI", "SUB_LOCATI": "MURUAKI", "LONG": 36.5747, "LAT": -0.681759, "SPATIAL_RE": "DDP", "F_TYPE": 4, "AGENCY": "MOH" }, "geometry": { "type": "Point", "coordinates": [ 36.5747, -0.681759 ] } },
{ "type": "Feature", "properties": { "F_NAME": "AGUTHI DISP", "PROV": "CENTRAL", "DIST": "NYERI", "DIVISION": "TETU", "LOCATION": "AGUTHI", "SUB_LOCATI": "GITITU", "LONG": 37.020721, "LAT": -0.501352, "SPATIAL_RE": "1:50000 MAPS", "F_TYPE": 4, "AGENCY": "MOH" }, "geometry": { "type": "Point", "coordinates": [ 37.020721, -0.501352 ] } },
{ "type": "Feature", "properties": { "F_NAME": "AMBONI DISP", "PROV": "CENTRAL", "DIST": "NYERI", "DIVISION": "KIENI WEST", "LOCATION": "MWEIGA", "SUB_LOCATI": "AMBONI", "LONG": 36.874537, "LAT": -0.331019, "SPATIAL_RE": "1:50000 MAPS", "F_TYPE": 4, "AGENCY": "MOH" }, "geometry": { "type": "Point", "coordinates": [ 36.874537, -0.331019 ] } },
{ "type": "Feature", "properties": { "F_NAME": "BELLEVUE SUB HEALTH CENTRE", "PROV": "CENTRAL", "DIST": "NYERI", "DIVISION": "KIENI WEST", "LOCATION": "GATARAKWA", "SUB_LOCATI": "KAMARIKI", "LONG": 36.781122, "LAT": -0.221133, "SPATIAL_RE": "1:50000 MAPS", "F_TYPE": 4, "AGENCY": "MOH" }, "geometry": { "type": "Point", "coordinates": [ 36.781122, -0.221133 ] } },
{ "type": "Feature", "properties": { "F_NAME": "BURGURET DISP", "PROV": "CENTRAL", "DIST": "NYERI", "DIVISION": "KIENI EAST", "LOCATION": "GAKAWA", "SUB_LOCATI": "GITHIMA(NYERI)", "LONG": 37.0, "LAT": -0.111224, "SPATIAL_RE": "1:50000 MAPS", "F_TYPE": 4, "AGENCY": "MOH" }, "geometry": { "type": "Point", "coordinates": [ 37.0, -0.111224 ] } },
{ "type": "Feature", "properties": { "F_NAME": "CHEHE DISP", "PROV": "CENTRAL", "DIST": "NYERI", "DIVISION": "MATHIRA", "LOCATION": "IRIA-INI", "SUB_LOCATI": "CHEHE", "LONG": 37.173874, "LAT": -0.440991, "SPATIAL_RE": "1:50000 MAPS", "F_TYPE": 4, "AGENCY": "MOH" }, "geometry": { "type": "Point", "coordinates": [ 37.173874, -0.440991 ] } },
{ "type": "Feature", "properties": { "F_NAME": "CONSOLATA HOSPITAL MATHARI", "PROV": "CENTRAL", "DIST": "NYERI", "DIVISION": "MUNICIPALITY", "LOCATION": "MUKARO", "SUB_LOCATI": "MATHARI", "LONG": 36.91898, "LAT": -0.41129, "SPATIAL_RE": "GPS", "F_TYPE": 1, "AGENCY": "MISS" }, "geometry": { "type": "Point", "coordinates": [ 36.91898, -0.41129 ] } },
{ "type": "Feature", "properties": { "F_NAME": "EMBARINGO DISP", "PROV": "CENTRAL", "DIST": "NYERI", "DIVISION": "KIENI WEST", "LOCATION": "GATARAKWA", "SUB_LOCATI": "EMBARINGO", "LONG": 36.682213, "LAT": -0.281144, "SPATIAL_RE": "1:50000 MAPS", "F_TYPE": 4, "AGENCY": "MOH" }, "geometry": { "type": "Point", "coordinates": [ 36.682213, -0.281144 ] } },
{ "type": "Feature", "properties": { "F_NAME": "ENDARASHA HEALTH CENTRE", "PROV": "CENTRAL", "DIST": "NYERI", "DIVISION": "KIENI WEST", "LOCATION": "ENDARASHA", "SUB_LOCATI": "ENDARASHA", "LONG": 36.7948, "LAT": -0.307348, "SPATIAL_RE": "1:50000 MAPS", "F_TYPE": 3, "AGENCY": "MOH" }, "geometry": { "type": "Point", "coordinates": [ 36.7948, -0.307348 ] } },
{ "type": "Feature", "properties": { "F_NAME": "GACHIKA DISP", "PROV": "CENTRAL", "DIST": "NYERI", "DIVISION": "MUNICIPALITY", "LOCATION": "KIGANJO", "SUB_LOCATI": "GACHIKA(NYERI)", "LONG": 37.026577, "LAT": -0.429054, "SPATIAL_RE": "1:50000 MAPS", "F_TYPE": 4, "AGENCY": "MOH" }, "geometry": { "type": "Point", "coordinates": [ 37.026577, -0.429054 ] } },
{ "type": "Feature", "properties": { "F_NAME": "GAKAWA DISP", "PROV": "CENTRAL", "DIST": "NYERI", "DIVISION": "KIENI EAST", "LOCATION": "GAKAWA", "SUB_LOCATI": "KAHURURA", "LONG": 37.08, "LAT": -0.041123, "SPATIAL_RE": "1:50000 MAPS", "F_TYPE": 4, "AGENCY": "MOH" }, "geometry": { "type": "Point", "coordinates": [ 37.08, -0.041123 ] } },
{ "type": "Feature", "properties": { "F_NAME": "GATEI DISP", "PROV": "CENTRAL", "DIST": "NYERI", "DIVISION": "MATHIRA", "LOCATION": "MAGUTU", "SUB_LOCATI": "GATEI(NYERI)", "LONG": 37.148198, "LAT": -0.399909, "SPATIAL_RE": "1:50000 MAPS", "F_TYPE": 4, "AGENCY": "MOH" }, "geometry": { "type": "Point", "coordinates": [ 37.148198, -0.399909 ] } },
{ "type": "Feature", "properties": { "F_NAME": "GATHIURU DISP", "PROV": "CENTRAL", "DIST": "NYERI", "DIVISION": "KIENI EAST", "LOCATION": "GAKAWA", "SUB_LOCATI": "GATHIURU", "LONG": 37.031124, "LAT": -0.07432, "SPATIAL_RE": "1:50000 MAPS", "F_TYPE": 4, "AGENCY": "MOH" }, "geometry": { "type": "Point", "coordinates": [ 37.031124, -0.07432 ] } },
{ "type": "Feature", "properties": { "F_NAME": "GATHUTHI DISP", "PROV": "CENTRAL", "DIST": "NYERI", "DIVISION": "TETU", "LOCATION": "THEGENGE", "SUB_LOCATI": "GATHUTHI", "LONG": 36.90123, "LAT": -0.48214, "SPATIAL_RE": "DISTRICT ESTIMATES", "F_TYPE": 4, "AGENCY": "MISS" }, "geometry": { "type": "Point", "coordinates": [ 36.90123, -0.48214 ] } },
{ "type": "Feature", "properties": { "F_NAME": "GATITU DISP", "PROV": "CENTRAL", "DIST": "NYERI", "DIVISION": "TETU", "LOCATION": "GAAKI", "SUB_LOCATI": "MUTATHIINI", "LONG": 36.9919, "LAT": -0.457437, "SPATIAL_RE": "1:50000 MAPS", "F_TYPE": 4, "AGENCY": "MOH" }, "geometry": { "type": "Point", "coordinates": [ 36.9919, -0.457437 ] } },
{ "type": "Feature", "properties": { "F_NAME": "GATONDO DISP", "PROV": "CENTRAL", "DIST": "NYERI", "DIVISION": "MATHIRA", "LOCATION": "IRIA-INI", "SUB_LOCATI": "KIAMWANGI", "LONG": 37.16667, "LAT": -0.43333, "SPATIAL_RE": "1:50000 MAPS", "F_TYPE": 4, "AGENCY": "MOH" }, "geometry": { "type": "Point", "coordinates": [ 37.16667, -0.43333 ] } },
{ "type": "Feature", "properties": { "F_NAME": "GIATHENGE DISP", "PROV": "CENTRAL", "DIST": "NYERI", "DIVISION": "OTHAYA", "LOCATION": "KARIMA", "SUB_LOCATI": "GURA", "LONG": 36.975528, "LAT": -0.532145, "SPATIAL_RE": "1:50000 MAPS", "F_TYPE": 4, "AGENCY": "MOH" }, "geometry": { "type": "Point", "coordinates": [ 36.975528, -0.532145 ] } },
{ "type": "Feature", "properties": { "F_NAME": "GICHICHI SUB HEALTH CENTRE", "PROV": "CENTRAL", "DIST": "NYERI", "DIVISION": "OTHAYA", "LOCATION": "CHINGA", "SUB_LOCATI": "GICHICHE(NYERI)", "LONG": 36.92429, "LAT": -0.57562, "SPATIAL_RE": "GPS", "F_TYPE": 3, "AGENCY": "MOH" }, "geometry": { "type": "Point", "coordinates": [ 36.92429, -0.57562 ] } },
{ "type": "Feature", "properties": { "F_NAME": "GICHIRA HEALTH CENTRE", "PROV": "CENTRAL", "DIST": "NYERI", "DIVISION": "TETU", "LOCATION": "AGUTHI", "SUB_LOCATI": "GICHIRA", "LONG": 37.019369, "LAT": -0.471847, "SPATIAL_RE": "1:50000 MAPS", "F_TYPE": 3, "AGENCY": "MOH" }, "geometry": { "type": "Point", "coordinates": [ 37.019369, -0.471847 ] } },
{ "type": "Feature", "properties": { "F_NAME": "GIKONDI DISP", "PROV": "CENTRAL", "DIST": "NYERI", "DIVISION": "MUKURWE-INI", "LOCATION": "GIKONDI", "SUB_LOCATI": "KIIRUNGI", "LONG": 37.03231, "LAT": -0.57123, "SPATIAL_RE": "DISTRICT ESTIMATES", "F_TYPE": 4, "AGENCY": "MISS" }, "geometry": { "type": "Point", "coordinates": [ 37.03231, -0.57123 ] } },
{ "type": "Feature", "properties": { "F_NAME": "GITUGI DISP", "PROV": "CENTRAL", "DIST": "NYERI", "DIVISION": "OTHAYA", "LOCATION": "MAHIGA", "SUB_LOCATI": "GITUGI(NYERI)", "LONG": 36.8629, "LAT": -0.517025, "SPATIAL_RE": "1:50000 MAPS", "F_TYPE": 4, "AGENCY": "MOH" }, "geometry": { "type": "Point", "coordinates": [ 36.8629, -0.517025 ] } },
{ "type": "Feature", "properties": { "F_NAME": "GITUNDUTI CATHOLIC DISP", "PROV": "CENTRAL", "DIST": "NYERI", "DIVISION": "MATHIRA", "LOCATION": "MAGUTU", "SUB_LOCATI": "GITUNDUTI", "LONG": 37.13234, "LAT": -0.39132, "SPATIAL_RE": "DISTRICT ESTIMATES", "F_TYPE": 4, "AGENCY": "MISS" }, "geometry": { "type": "Point", "coordinates": [ 37.13234, -0.39132 ] } },
{ "type": "Feature", "properties": { "F_NAME": "GUMBA DISP", "PROV": "CENTRAL", "DIST": "NYERI", "DIVISION": "MUKURWE-INI", "LOCATION": "RUTUNE", "SUB_LOCATI": "NGAMWA", "LONG": 37.125226, "LAT": -0.619394, "SPATIAL_RE": "1:50000 MAPS", "F_TYPE": 4, "AGENCY": "MOH" }, "geometry": { "type": "Point", "coordinates": [ 37.125226, -0.619394 ] } },
{ "type": "Feature", "properties": { "F_NAME": "HOMBE DISP", "PROV": "CENTRAL", "DIST": "NYERI", "DIVISION": "MATHIRA", "LOCATION": "RUGURU", "SUB_LOCATI": "SAGANA(NYERI)", "LONG": 37.08784, "LAT": -0.354505, "SPATIAL_RE": "1:50000 MAPS", "F_TYPE": 4, "AGENCY": "MOH" }, "geometry": { "type": "Point", "coordinates": [ 37.08784, -0.354505 ] } },
{ "type": "Feature", "properties": { "F_NAME": "HOMEBASED DISP", "PROV": "CENTRAL", "DIST": "NYERI", "DIVISION": "MATHIRA", "LOCATION": "KARATINA", "SUB_LOCATI": "CHERU", "LONG": 37.12657, "LAT": -0.47851, "SPATIAL_RE": "GPS", "F_TYPE": 4, "AGENCY": "MOH" }, "geometry": { "type": "Point", "coordinates": [ 37.12657, -0.47851 ] } },
{ "type": "Feature", "properties": { "F_NAME": "ICHAMARA DISP", "PROV": "CENTRAL", "DIST": "NYERI", "DIVISION": "MUKURWE-INI", "LOCATION": "GITHI", "SUB_LOCATI": "ICHAMARA", "LONG": 37.07877, "LAT": -0.54258, "SPATIAL_RE": "GPS", "F_TYPE": 4, "AGENCY": "MOH" }, "geometry": { "type": "Point", "coordinates": [ 37.07877, -0.54258 ] } },
{ "type": "Feature", "properties": { "F_NAME": "IHURIRIO DISP", "PROV": "CENTRAL", "DIST": "NYERI", "DIVISION": "OTHAYA", "LOCATION": "IRIA-INI", "SUB_LOCATI": "IHURIRIO", "LONG": 36.883322, "LAT": -0.554411, "SPATIAL_RE": "1:50000 MAPS", "F_TYPE": 4, "AGENCY": "MOH" }, "geometry": { "type": "Point", "coordinates": [ 36.883322, -0.554411 ] } },
{ "type": "Feature", "properties": { "F_NAME": "IHURURU DISP", "PROV": "CENTRAL", "DIST": "NYERI", "DIVISION": "TETU", "LOCATION": "MAHOYA", "SUB_LOCATI": "IHURURU", "LONG": 36.8907, "LAT": -0.412186, "SPATIAL_RE": "1:50000 MAPS", "F_TYPE": 4, "AGENCY": "MOH" }, "geometry": { "type": "Point", "coordinates": [ 36.8907, -0.412186 ] } },
{ "type": "Feature", "properties": { "F_NAME": "ISLAND FARM DISP", "PROV": "CENTRAL", "DIST": "NYERI", "DIVISION": "KIENI EAST", "LOCATION": "NAROMORU", "SUB_LOCATI": "RONGAI(NYERI)", "LONG": 37.061123, "LAT": -0.21134, "SPATIAL_RE": "1:50000 MAPS", "F_TYPE": 4, "AGENCY": "MOH" }, "geometry": { "type": "Point", "coordinates": [ 37.061123, -0.21134 ] } },
{ "type": "Feature", "properties": { "F_NAME": "ITIATI DISP", "PROV": "CENTRAL", "DIST": "NYERI", "DIVISION": "MATHIRA", "LOCATION": "KONYU", "SUB_LOCATI": "ITIATI", "LONG": 37.107207, "LAT": -0.40991, "SPATIAL_RE": "1:50000 MAPS", "F_TYPE": 4, "AGENCY": "MOH" }, "geometry": { "type": "Point", "coordinates": [ 37.107207, -0.40991 ] } },